[
  {
    "country": "GB",
    "latitude": "51.490719",
    "longitude": "0.120343",
    "name": "Abbey Wood",
    "station_code": "ABW"
  },
  {
    "country": "GB",
    "latitude": "51.575363",
    "longitude": "-3.23089",
    "name": "Aber",
    "station_code": "ABE"
  },
  {
    "country": "GB",
    "latitude": "51.64262",
    "longitude": "-3.329549",
    "name": "Abercynon",
    "station_code": "ACY"
  },
  {
    "country": "GB",
    "latitude": "51.715019",
    "longitude": "-3.44313",
    "name": "Aberdare",
    "station_code": "ABA"
  },
  {
    "country": "GB",
    "latitude": "57.143127",
    "longitude": "-2.097464",
    "name": "Aberdeen",
    "station_code": "ABD"
  },
  {
    "country": "GB",
    "latitude": "56.054646",
    "longitude": "-3.300575",
    "name": "Aberdour",
    "station_code": "AUR"
  },
  {
    "country": "GB",
    "latitude": "52.543934",
    "longitude": "-4.057118",
    "name": "Aberdovey",
    "station_code": "AVY"
  },
  {
    "country": "GB",
    "latitude": "52.898567",
    "longitude": "-4.37423",
    "name": "Abererch",
    "station_code": "ABH"
  },
  {
    "country": "GB",
    "latitude": "51.81665",
    "longitude": "-3.009679",
    "name": "Abergavenny",
    "station_code": "AGV"
  },
  {
    "country": "GB",
    "latitude": "53.294758",
    "longitude": "-3.581343",
    "name": "Abergele & Pensarn",
    "station_code": "AGL"
  },
  {
    "country": "GB",
    "latitude": "52.414017",
    "longitude": "-4.081946",
    "name": "Aberystwyth",
    "station_code": "AYW"
  },
  {
    "country": "GB",
    "latitude": "53.50995",
    "longitude": "-2.2367",
    "name": "Abraham Moss Metrolink",
    "station_code": "AMM"
  },
  {
    "country": "GB",
    "latitude": "53.753193",
    "longitude": "-2.370016",
    "name": "Accrington",
    "station_code": "ACR"
  },
  {
    "country": "GB",
    "latitude": "57.609921",
    "longitude": "-4.914243",
    "name": "Achanalt",
    "station_code": "AAT"
  },
  {
    "country": "GB",
    "latitude": "57.579205",
    "longitude": "-5.072421",
    "name": "Achnasheen",
    "station_code": "ACN"
  },
  {
    "country": "GB",
    "latitude": "57.482697",
    "longitude": "-5.333001",
    "name": "Achnashellach",
    "station_code": "ACH"
  },
  {
    "country": "GB",
    "latitude": "55.307129",
    "longitude": "-1.651816",
    "name": "Acklington",
    "station_code": "ACK"
  },
  {
    "country": "GB",
    "latitude": "52.634647",
    "longitude": "1.543981",
    "name": "Acle",
    "station_code": "ACL"
  },
  {
    "country": "GB",
    "latitude": "52.449291",
    "longitude": "-1.81898",
    "name": "Acocks Green",
    "station_code": "ACG"
  },
  {
    "country": "GB",
    "latitude": "53.265961",
    "longitude": "-2.602689",
    "name": "Acton Bridge",
    "station_code": "ACB"
  },
  {
    "country": "GB",
    "latitude": "51.508717",
    "longitude": "-0.263601",
    "name": "Acton Central",
    "station_code": "ACC"
  },
  {
    "country": "GB",
    "latitude": "51.516865",
    "longitude": "-0.26762",
    "name": "Acton Main Line",
    "station_code": "AML"
  },
  {
    "country": "GB",
    "latitude": "52.483505",
    "longitude": "-1.854184",
    "name": "Adderley Park",
    "station_code": "ADD"
  },
  {
    "country": "GB",
    "latitude": "55.843449",
    "longitude": "-3.60655",
    "name": "Addiewell",
    "station_code": "ADW"
  },
  {
    "country": "GB",
    "latitude": "51.372414",
    "longitude": "-0.48571",
    "name": "Addlestone",
    "station_code": "ASN"
  },
  {
    "country": "NI",
    "latitude": "-5.9950",
    "longitude": "54.5784",
    "name": "Adelaide",
    "station_code": ""
  },
  {
    "country": "GB",
    "latitude": "51.241352",
    "longitude": "1.199277",
    "name": "Adisham",
    "station_code": "ADM"
  },
  {
    "country": "GB",
    "latitude": "53.319542",
    "longitude": "-2.133571",
    "name": "Adlington (Cheshire)",
    "station_code": "ADC"
  },
  {
    "country": "GB",
    "latitude": "53.612926",
    "longitude": "-2.603084",
    "name": "Adlington (Lancashire)",
    "station_code": "ADL"
  },
  {
    "country": "GB",
    "latitude": "53.572994",
    "longitude": "-1.181465",
    "name": "Adwick",
    "station_code": "AWK"
  },
  {
    "country": "GB",
    "latitude": "53.364614",
    "longitude": "-2.927041",
    "name": "Aigburth",
    "station_code": "AIG"
  },
  {
    "country": "GB",
    "latitude": "53.601818",
    "longitude": "-3.042691",
    "name": "Ainsdale",
    "station_code": "ANS"
  },
  {
    "country": "GB",
    "latitude": "53.473995",
    "longitude": "-2.956687",
    "name": "Aintree",
    "station_code": "AIN"
  },
  {
    "country": "GB",
    "latitude": "55.782504",
    "longitude": "-3.994447",
    "name": "Airbles",
    "station_code": "AIR"
  },
  {
    "country": "GB",
    "latitude": "55.864029",
    "longitude": "-3.982952",
    "name": "Airdrie",
    "station_code": "ADR"
  },
  {
    "country": "GB",
    "latitude": "51.435745",
    "longitude": "0.126427",
    "name": "Albany Park",
    "station_code": "AYP"
  },
  {
    "country": "GB",
    "latitude": "52.637917",
    "longitude": "-2.268913",
    "name": "Albrighton",
    "station_code": "ALB"
  },
  {
    "country": "GB",
    "latitude": "53.303762",
    "longitude": "-2.236812",
    "name": "Alderley Edge",
    "station_code": "ALD"
  },
  {
    "country": "GB",
    "latitude": "51.402047",
    "longitude": "-1.136972",
    "name": "Aldermaston",
    "station_code": "AMT"
  },
  {
    "country": "GB",
    "latitude": "51.246151",
    "longitude": "-0.760657",
    "name": "Aldershot",
    "station_code": "AHT"
  },
  {
    "country": "GB",
    "latitude": "50.836601",
    "longitude": "-0.182151",
    "name": "Aldrington",
    "station_code": "AGT"
  },
  {
    "country": "GB",
    "latitude": "51.598225",
    "longitude": "-0.120129",
    "name": "Alexandra Palace",
    "station_code": "AAP"
  },
  {
    "country": "GB",
    "latitude": "55.863724",
    "longitude": "-4.211465",
    "name": "Alexandra Parade",
    "station_code": "AXP"
  },
  {
    "country": "GB",
    "latitude": "55.98513",
    "longitude": "-4.577534",
    "name": "Alexandria",
    "station_code": "ALX"
  },
  {
    "country": "GB",
    "latitude": "53.100414",
    "longitude": "-1.369689",
    "name": "Alfreton",
    "station_code": "ALF"
  },
  {
    "country": "GB",
    "latitude": "54.524128",
    "longitude": "-1.363418",
    "name": "Allens West",
    "station_code": "ALW"
  },
  {
    "country": "GB",
    "latitude": "56.1179",
    "longitude": "-3.7872",
    "name": "Alloa",
    "station_code": "ALO"
  },
  {
    "country": "GB",
    "latitude": "57.694477",
    "longitude": "-4.249743",
    "name": "Alness",
    "station_code": "ASS"
  },
  {
    "country": "GB",
    "latitude": "55.392456",
    "longitude": "-1.636858",
    "name": "Alnmouth",
    "station_code": "ALM"
  },
  {
    "country": "GB",
    "latitude": "51.853828",
    "longitude": "0.997114",
    "name": "Alresford",
    "station_code": "ALR"
  },
  {
    "country": "GB",
    "latitude": "53.093054",
    "longitude": "-2.29861",
    "name": "Alsager",
    "station_code": "ASG"
  },
  {
    "country": "GB",
    "latitude": "51.647526",
    "longitude": "0.753603",
    "name": "Althorne",
    "station_code": "ALN"
  },
  {
    "country": "GB",
    "latitude": "53.585262",
    "longitude": "-0.732558",
    "name": "Althorpe",
    "station_code": "ALP"
  },
  {
    "country": "GB",
    "latitude": "58.388439",
    "longitude": "-3.705279",
    "name": "Altnabreac",
    "station_code": "ABC"
  },
  {
    "country": "GB",
    "latitude": "51.151947",
    "longitude": "-0.967658",
    "name": "Alton",
    "station_code": "AON"
  },
  {
    "country": "GB",
    "latitude": "53.3874",
    "longitude": "-2.347212",
    "name": "Altrincham",
    "station_code": "ALT"
  },
  {
    "country": "GB",
    "latitude": "53.38833",
    "longitude": "-2.34728",
    "name": "Altrincham Metrolink",
    "station_code": "XNA"
  },
  {
    "country": "GB",
    "latitude": "52.346607",
    "longitude": "-1.967854",
    "name": "Alvechurch",
    "station_code": "ALV"
  },
  {
    "country": "GB",
    "latitude": "53.060501",
    "longitude": "-1.4807",
    "name": "Ambergate",
    "station_code": "AMB"
  },
  {
    "country": "GB",
    "latitude": "50.896507",
    "longitude": "-0.542446",
    "name": "Amberley",
    "station_code": "AMY"
  },
  {
    "country": "GB",
    "latitude": "51.67439",
    "longitude": "-0.60613",
    "name": "Amersham",
    "station_code": "AMR"
  },
  {
    "country": "GB",
    "latitude": "51.795933",
    "longitude": "-3.996783",
    "name": "Ammanford",
    "station_code": "AMF"
  },
  {
    "country": "GB",
    "latitude": "52.987888",
    "longitude": "-0.535596",
    "name": "Ancaster",
    "station_code": "ANC"
  },
  {
    "country": "GB",
    "latitude": "53.47389",
    "longitude": "-2.28621",
    "name": "Anchorage Metrolink",
    "station_code": "ANH"
  },
  {
    "country": "GB",
    "latitude": "55.859924",
    "longitude": "-4.271969",
    "name": "Anderston",
    "station_code": "AND"
  },
  {
    "country": "GB",
    "latitude": "51.212048",
    "longitude": "-1.493167",
    "name": "Andover",
    "station_code": "ADV"
  },
  {
    "country": "GB",
    "latitude": "51.41163",
    "longitude": "-0.064348",
    "name": "Anerley",
    "station_code": "ANZ"
  },
  {
    "country": "GB",
    "latitude": "51.612354",
    "longitude": "-0.048763",
    "name": "Angel Road",
    "station_code": "AGR"
  },
  {
    "country": "GB",
    "latitude": "50.816704",
    "longitude": "-0.489559",
    "name": "Angmering",
    "station_code": "ANG"
  },
  {
    "country": "GB",
    "latitude": "54.98386",
    "longitude": "-3.262603",
    "name": "Annan",
    "station_code": "ANN"
  },
  {
    "country": "GB",
    "latitude": "55.889553",
    "longitude": "-4.321684",
    "name": "Anniesland",
    "station_code": "ANL"
  },
  {
    "country": "GB",
    "latitude": "53.741558",
    "longitude": "-2.993077",
    "name": "Ansdell & Fairhaven",
    "station_code": "AFV"
  },
  {
    "country": "NI",
    "latitude": "-6.2115",
    "longitude": "54.7182",
    "name": "Antrim",
    "station_code": ""
  },
  {
    "country": "GB",
    "latitude": "53.84138",
    "longitude": "-1.703065",
    "name": "Apperley Bridge",
    "station_code": "APY"
  },
  {
    "country": "GB",
    "latitude": "54.58032",
    "longitude": "-2.486692",
    "name": "Appleby",
    "station_code": "APP"
  },
  {
    "country": "GB",
    "latitude": "51.032623",
    "longitude": "0.816826",
    "name": "Appledore (Kent)",
    "station_code": "APD"
  },
  {
    "country": "GB",
    "latitude": "51.639562",
    "longitude": "-1.242375",
    "name": "Appleford",
    "station_code": "APF"
  },
  {
    "country": "GB",
    "latitude": "53.579029",
    "longitude": "-2.718906",
    "name": "Appley Bridge",
    "station_code": "APB"
  },
  {
    "country": "GB",
    "latitude": "51.732712",
    "longitude": "-0.463568",
    "name": "Apsley",
    "station_code": "APS"
  },
  {
    "country": "GB",
    "latitude": "56.559628",
    "longitude": "-2.588928",
    "name": "Arbroath",
    "station_code": "ARB"
  },
  {
    "country": "GB",
    "latitude": "57.881119",
    "longitude": "-4.362604",
    "name": "Ardgay",
    "station_code": "ARD"
  },
  {
    "country": "GB",
    "latitude": "56.302025",
    "longitude": "-4.721712",
    "name": "Ardlui",
    "station_code": "AUI"
  },
  {
    "country": "GB",
    "latitude": "55.6432",
    "longitude": "-4.8097",
    "name": "Ardrossan",
    "station_code": "4"
  },
  {
    "country": "GB",
    "latitude": "55.640854",
    "longitude": "-4.823461",
    "name": "Ardrossan Harbour",
    "station_code": "ADS"
  },
  {
    "country": "GB",
    "latitude": "55.640495",
    "longitude": "-4.799593",
    "name": "Ardrossan South Beach",
    "station_code": "ASB"
  },
  {
    "country": "GB",
    "latitude": "55.639313",
    "longitude": "-4.812212",
    "name": "Ardrossan Town",
    "station_code": "ADN"
  },
  {
    "country": "GB",
    "latitude": "53.47134",
    "longitude": "-2.213893",
    "name": "Ardwick",
    "station_code": "ADK"
  },
  {
    "country": "GB",
    "latitude": "55.855938",
    "longitude": "-4.244574",
    "name": "Argyle Street",
    "station_code": "AGS"
  },
  {
    "country": "GB",
    "latitude": "56.912617",
    "longitude": "-5.839141",
    "name": "Arisaig",
    "station_code": "ARG"
  },
  {
    "country": "GB",
    "latitude": "52.025938",
    "longitude": "-0.266178",
    "name": "Arlesey",
    "station_code": "ARL"
  },
  {
    "country": "GB",
    "latitude": "55.88639",
    "longitude": "-3.68504",
    "name": "Armadale",
    "station_code": "ARM"
  },
  {
    "country": "GB",
    "latitude": "54.809611",
    "longitude": "-2.77209",
    "name": "Armathwaite",
    "station_code": "AWT"
  },
  {
    "country": "GB",
    "latitude": "54.202114",
    "longitude": "-2.827783",
    "name": "Arnside",
    "station_code": "ARN"
  },
  {
    "country": "GB",
    "latitude": "53.884567",
    "longitude": "-0.426833",
    "name": "Arram",
    "station_code": "ARR"
  },
  {
    "country": "GB",
    "latitude": "56.204021",
    "longitude": "-4.722822",
    "name": "Arrochar & Tarbet",
    "station_code": "ART"
  },
  {
    "country": "GB",
    "latitude": "50.848003",
    "longitude": "-0.546796",
    "name": "Arundel",
    "station_code": "ARU"
  },
  {
    "country": "GB",
    "latitude": "51.406185",
    "longitude": "-0.675827",
    "name": "Ascot",
    "station_code": "ACT"
  },
  {
    "country": "GB",
    "latitude": "51.867376",
    "longitude": "-1.564136",
    "name": "Ascott-Under-Wychwood",
    "station_code": "AUW"
  },
  {
    "country": "GB",
    "latitude": "51.249222",
    "longitude": "-0.711856",
    "name": "Ash",
    "station_code": "ASH"
  },
  {
    "country": "GB",
    "latitude": "51.272709",
    "longitude": "-0.721247",
    "name": "Ash Vale",
    "station_code": "AHV"
  },
  {
    "country": "GB",
    "latitude": "53.471761",
    "longitude": "-2.194991",
    "name": "Ashburys",
    "station_code": "ABY"
  },
  {
    "country": "GB",
    "latitude": "51.997158",
    "longitude": "-2.10921",
    "name": "Ashchurch for Tewkesbury",
    "station_code": "ASC"
  },
  {
    "country": "GB",
    "latitude": "55.889214",
    "longitude": "-4.2433",
    "name": "Ashfield",
    "station_code": "ASF"
  },
  {
    "country": "GB",
    "latitude": "",
    "longitude": "",
    "name": "Ashford",
    "station_code": ""
  },
  {
    "country": "GB",
    "latitude": "51.143434",
    "longitude": "0.875153",
    "name": "Ashford International",
    "station_code": ""
  },
  {
    "country": "GB",
    "latitude": "51.14335293766652",
    "longitude": "0.8751672506332396",
    "name": "Ashford International",
    "station_code": "AFK"
  },
  {
    "country": "GB",
    "latitude": "51.143673",
    "longitude": "0.873628",
    "name": "Ashford International",
    "station_code": ""
  },
  {
    "country": "GB",
    "latitude": "51.436047",
    "longitude": "-0.469229",
    "name": "Ashford Surrey",
    "station_code": "AFS"
  },
  {
    "country": "GB",
    "latitude": "53.355984",
    "longitude": "-2.341029",
    "name": "Ashley",
    "station_code": "ASY"
  },
  {
    "country": "GB",
    "latitude": "51.317822",
    "longitude": "-0.308126",
    "name": "Ashtead",
    "station_code": "AHD"
  },
  {
    "country": "GB",
    "latitude": "53.491264",
    "longitude": "-2.093415",
    "name": "Ashton-Under-Lyne",
    "station_code": "AHN"
  },
  {
    "country": "GB",
    "latitude": "51.128601",
    "longitude": "0.152298",
    "name": "Ashurst Kent",
    "station_code": "AHS"
  },
  {
    "country": "GB",
    "latitude": "50.888865",
    "longitude": "-1.525097",
    "name": "Ashurst New Forest",
    "station_code": "ANF"
  },
  {
    "country": "GB",
    "latitude": "52.030586",
    "longitude": "-0.10934",
    "name": "Ashwell & Morden",
    "station_code": "AWM"
  },
  {
    "country": "GB",
    "latitude": "54.189049",
    "longitude": "-3.204545",
    "name": "Askam",
    "station_code": "ASK"
  },
  {
    "country": "GB",
    "latitude": "52.951351",
    "longitude": "-0.898541",
    "name": "Aslockton",
    "station_code": "ALK"
  },
  {
    "country": "GB",
    "latitude": "54.759338",
    "longitude": "-3.331752",
    "name": "Aspatria",
    "station_code": "ASP"
  },
  {
    "country": "GB",
    "latitude": "52.020725",
    "longitude": "-0.631519",
    "name": "Aspley Guise",
    "station_code": "APG"
  },
  {
    "country": "GB",
    "latitude": "52.505104",
    "longitude": "-1.871788",
    "name": "Aston",
    "station_code": "AST"
  },
  {
    "country": "GB",
    "latitude": "52.578949",
    "longitude": "-1.552808",
    "name": "Atherstone",
    "station_code": "ATH"
  },
  {
    "country": "GB",
    "latitude": "53.528817",
    "longitude": "-2.478683",
    "name": "Atherton",
    "station_code": "ATN"
  },
  {
    "country": "GB",
    "latitude": "57.394871",
    "longitude": "-5.456549",
    "name": "Attadale",
    "station_code": "ATT"
  },
  {
    "country": "GB",
    "latitude": "52.906322",
    "longitude": "-1.231262",
    "name": "Attenborough",
    "station_code": "ATB"
  },
  {
    "country": "GB",
    "latitude": "52.514214",
    "longitude": "1.022719",
    "name": "Attleborough",
    "station_code": "ATL"
  },
  {
    "country": "GB",
    "latitude": "55.47031",
    "longitude": "-4.295389",
    "name": "Auchinleck",
    "station_code": "AUK"
  },
  {
    "country": "GB",
    "latitude": "52.004398",
    "longitude": "0.20719",
    "name": "Audley End",
    "station_code": "AUD"
  },
  {
    "country": "GB",
    "latitude": "53.55447",
    "longitude": "-2.895095",
    "name": "Aughton Park",
    "station_code": "AUG"
  },
  {
    "country": "GB",
    "latitude": "57.18914",
    "longitude": "-3.828348",
    "name": "Aviemore",
    "station_code": "AVM"
  },
  {
    "country": "GB",
    "latitude": "51.339596",
    "longitude": "-2.281342",
    "name": "Avoncliff",
    "station_code": "AVF"
  },
  {
    "country": "GB",
    "latitude": "51.500194",
    "longitude": "-2.699332",
    "name": "Avonmouth",
    "station_code": "AVN"
  },
  {
    "country": "GB",
    "latitude": "50.778976",
    "longitude": "-3.005613",
    "name": "Axminster",
    "station_code": "AXM"
  },
  {
    "country": "GB",
    "latitude": "51.813868",
    "longitude": "-0.815048",
    "name": "Aylesbury",
    "station_code": "AYS"
  },
  {
    "country": "GB",
    "latitude": "51.8327",
    "longitude": "-0.8623",
    "name": "Aylesbury Vale Parkway",
    "station_code": "AVP"
  },
  {
    "country": "GB",
    "latitude": "51.301384",
    "longitude": "0.465964",
    "name": "Aylesford",
    "station_code": "AYL"
  },
  {
    "country": "GB",
    "latitude": "51.227185",
    "longitude": "1.209682",
    "name": "Aylesham",
    "station_code": "AYH"
  },
  {
    "country": "GB",
    "latitude": "55.458248",
    "longitude": "-4.626878",
    "name": "Ayr Station",
    "station_code": "AYR"
  },
  {
    "country": "GB",
    "latitude": "53.209312",
    "longitude": "-2.892386",
    "name": "Bache",
    "station_code": "BAC"
  },
  {
    "country": "GB",
    "latitude": "51.61549",
    "longitude": "-3.811182",
    "name": "Baglan",
    "station_code": "BAJ"
  },
  {
    "country": "GB",
    "latitude": "51.364964",
    "longitude": "-0.688501",
    "name": "Bagshot",
    "station_code": "BAG"
  },
  {
    "country": "GB",
    "latitude": "53.849682",
    "longitude": "-1.753717",
    "name": "Baildon",
    "station_code": "BLD"
  },
  {
    "country": "GB",
    "latitude": "55.844761",
    "longitude": "-4.11454",
    "name": "Baillieston",
    "station_code": "BIO"
  },
  {
    "country": "GB",
    "latitude": "51.05624",
    "longitude": "-0.137881",
    "name": "Balcombe",
    "station_code": "BAB"
  },
  {
    "country": "GB",
    "latitude": "51.993156",
    "longitude": "-0.188106",
    "name": "Baldock",
    "station_code": "BDK"
  },
  {
    "country": "GB",
    "latitude": "51.443169",
    "longitude": "-0.152403",
    "name": "Balham",
    "station_code": "BAL"
  },
  {
    "country": "GB",
    "latitude": "56.002983",
    "longitude": "-4.583539",
    "name": "Balloch Central",
    "station_code": "BHC"
  },
  {
    "country": "NI",
    "latitude": "-5.726",
    "longitude": "54.777",
    "name": "Ballycarry",
    "station_code": ""
  },
  {
    "country": "NI",
    "latitude": "-6.175",
    "longitude": "54.5151",
    "name": "Ballymena",
    "station_code": ""
  },
  {
    "country": "NI",
    "latitude": "-6.305",
    "longitude": "54.40",
    "name": "Ballymoney",
    "station_code": ""
  },
  {
    "country": "NI",
    "latitude": "-5.9682",
    "longitude": "54.5688",
    "name": "Balmoral",
    "station_code": ""
  },
  {
    "country": "GB",
    "latitude": "56.475548",
    "longitude": "-2.83764",
    "name": "Balmossie",
    "station_code": "BSI"
  },
  {
    "country": "GB",
    "latitude": "53.726772",
    "longitude": "-2.660793",
    "name": "Bamber Bridge",
    "station_code": "BMB"
  },
  {
    "country": "GB",
    "latitude": "53.338985",
    "longitude": "-1.689078",
    "name": "Bamford",
    "station_code": "BAM"
  },
  {
    "country": "GB",
    "latitude": "56.84338",
    "longitude": "-5.095477",
    "name": "Banavie",
    "station_code": "BNV"
  },
  {
    "country": "GB",
    "latitude": "52.060925",
    "longitude": "-1.327541",
    "name": "Banbury",
    "station_code": "BAN"
  },
  {
    "country": "NI",
    "latitude": "-5.6725",
    "longitude": "54.6585",
    "name": "Bangor",
    "station_code": ""
  },
  {
    "country": "GB",
    "latitude": "53.222902",
    "longitude": "-4.135505",
    "name": "Bangor (Gwynedd)",
    "station_code": "BNG"
  },
  {
    "country": "NI",
    "latitude": "-5.6929",
    "longitude": "54.6595",
    "name": "Bangor West",
    "station_code": ""
  },
  {
    "country": "GB",
    "latitude": "53.437357",
    "longitude": "-2.987509",
    "name": "Bank Hall",
    "station_code": "BAH"
  },
  {
    "country": "GB",
    "latitude": "51.329922",
    "longitude": "-0.214384",
    "name": "Banstead",
    "station_code": "BAD"
  },
  {
    "country": "GB",
    "latitude": "55.5611",
    "longitude": "-4.651181",
    "name": "Barassie",
    "station_code": "BSS"
  },
  {
    "country": "GB",
    "latitude": "54.974636",
    "longitude": "-2.349922",
    "name": "Bardon Mill",
    "station_code": "BLL"
  },
  {
    "country": "GB",
    "latitude": "54.074473",
    "longitude": "-2.835331",
    "name": "Bare Lane",
    "station_code": "BAR"
  },
  {
    "country": "GB",
    "latitude": "55.851776",
    "longitude": "-4.071789",
    "name": "Bargeddie",
    "station_code": "BGI"
  },
  {
    "country": "GB",
    "latitude": "51.692268",
    "longitude": "-3.229717",
    "name": "Bargoed",
    "station_code": "BGD"
  },
  {
    "country": "GB",
    "latitude": "51.539982",
    "longitude": "0.080804",
    "name": "Barking",
    "station_code": "BKG"
  },
  {
    "country": "GB",
    "latitude": "52.942856",
    "longitude": "-2.168118",
    "name": "Barlaston",
    "station_code": "BRT"
  },
  {
    "country": "GB",
    "latitude": "51.284904",
    "longitude": "0.479428",
    "name": "Barming",
    "station_code": "BMG"
  },
  {
    "country": "GB",
    "latitude": "52.72287",
    "longitude": "-4.056641",
    "name": "Barmouth",
    "station_code": "BRM"
  },
  {
    "country": "GB",
    "latitude": "51.464798",
    "longitude": "0.160885",
    "name": "Barnehurst",
    "station_code": "BNH"
  },
  {
    "country": "GB",
    "latitude": "51.471676",
    "longitude": "-0.252051",
    "name": "Barnes Bridge",
    "station_code": "BNI"
  },
  {
    "country": "GB",
    "latitude": "51.467014",
    "longitude": "-0.240711",
    "name": "Barnes Station",
    "station_code": "BNS"
  },
  {
    "country": "GB",
    "latitude": "53.574219",
    "longitude": "-0.409679",
    "name": "Barnetby",
    "station_code": "BTB"
  },
  {
    "country": "GB",
    "latitude": "50.831135",
    "longitude": "-0.639627",
    "name": "Barnham",
    "station_code": "BAA"
  },
  {
    "country": "GB",
    "latitude": "55.877895",
    "longitude": "-4.223463",
    "name": "Barnhill",
    "station_code": "BNL"
  },
  {
    "country": "GB",
    "latitude": "53.553978",
    "longitude": "-1.477688",
    "name": "Barnsley",
    "station_code": "BNY"
  },
  {
    "country": "GB",
    "latitude": "51.073532",
    "longitude": "-4.064032",
    "name": "Barnstaple",
    "station_code": "BNP"
  },
  {
    "country": "GB",
    "latitude": "52.361328",
    "longitude": "-1.994098",
    "name": "Barnt Green",
    "station_code": "BTG"
  },
  {
    "country": "GB",
    "latitude": "55.804535",
    "longitude": "-4.396411",
    "name": "Barrhead",
    "station_code": "BRR"
  },
  {
    "country": "GB",
    "latitude": "55.097031",
    "longitude": "-4.781834",
    "name": "Barrhill",
    "station_code": "BRL"
  },
  {
    "country": "GB",
    "latitude": "53.697128",
    "longitude": "-0.391427",
    "name": "Barrow Haven",
    "station_code": "BAV"
  },
  {
    "country": "GB",
    "latitude": "52.750244",
    "longitude": "-1.14956",
    "name": "Barrow Upon Soar",
    "station_code": "BWS"
  },
  {
    "country": "GB",
    "latitude": "54.118879",
    "longitude": "-3.22614",
    "name": "Barrow-In-Furness",
    "station_code": "BIF"
  },
  {
    "country": "GB",
    "latitude": "51.402393",
    "longitude": "-3.260749",
    "name": "Barry Docks",
    "station_code": "BYD"
  },
  {
    "country": "GB",
    "latitude": "51.392361",
    "longitude": "-3.273405",
    "name": "Barry Island",
    "station_code": "BYI"
  },
  {
    "country": "GB",
    "latitude": "56.493206",
    "longitude": "-2.745444",
    "name": "Barry Links",
    "station_code": "BYL"
  },
  {
    "country": "GB",
    "latitude": "51.396729",
    "longitude": "-3.285023",
    "name": "Barry Station",
    "station_code": "BRY"
  },
  {
    "country": "GB",
    "latitude": "53.688824",
    "longitude": "-0.443233",
    "name": "Barton-On-Humber",
    "station_code": "BAU"
  },
  {
    "country": "GB",
    "latitude": "51.568672",
    "longitude": "0.457309",
    "name": "Basildon",
    "station_code": "BSO"
  },
  {
    "country": "GB",
    "latitude": "51.26804",
    "longitude": "-1.086896",
    "name": "Basingstoke",
    "station_code": "BSK"
  },
  {
    "country": "GB",
    "latitude": "51.289703",
    "longitude": "0.194258",
    "name": "Bat & Ball",
    "station_code": "BBL"
  },
  {
    "country": "GB",
    "latitude": "51.378059",
    "longitude": "-2.356302",
    "name": "Bath Spa",
    "station_code": "BTH"
  },
  {
    "country": "GB",
    "latitude": "55.898678",
    "longitude": "-3.644019",
    "name": "Bathgate",
    "station_code": "BHG"
  },
  {
    "country": "GB",
    "latitude": "53.709129",
    "longitude": "-1.622734",
    "name": "Batley",
    "station_code": "BTL"
  },
  {
    "country": "GB",
    "latitude": "54.457687",
    "longitude": "-1.092945",
    "name": "Battersby",
    "station_code": "BTT"
  },
  {
    "country": "GB",
    "latitude": "51.477272",
    "longitude": "-0.148151",
    "name": "Battersea Park",
    "station_code": "BAK"
  },
  {
    "country": "GB",
    "latitude": "50.91312",
    "longitude": "0.495169",
    "name": "Battle",
    "station_code": "BAT"
  },
  {
    "country": "GB",
    "latitude": "51.624805",
    "longitude": "0.565826",
    "name": "Battlesbridge",
    "station_code": "BLB"
  },
  {
    "country": "GB",
    "latitude": "51.758808",
    "longitude": "-0.096074",
    "name": "Bayford",
    "station_code": "BAY"
  },
  {
    "country": "GB",
    "latitude": "51.611141",
    "longitude": "-0.643644",
    "name": "Beaconsfield",
    "station_code": "BCF"
  },
  {
    "country": "GB",
    "latitude": "52.244252",
    "longitude": "-1.750259",
    "name": "Bearley",
    "station_code": "BER"
  },
  {
    "country": "GB",
    "latitude": "55.917202",
    "longitude": "-4.332945",
    "name": "Bearsden",
    "station_code": "BRN"
  },
  {
    "country": "GB",
    "latitude": "51.275589",
    "longitude": "0.57786",
    "name": "Bearsted",
    "station_code": "BSD"
  },
  {
    "country": "GB",
    "latitude": "56.899624",
    "longitude": "-5.763864",
    "name": "Beasdale",
    "station_code": "BSL"
  },
  {
    "country": "GB",
    "latitude": "50.854206",
    "longitude": "-1.505586",
    "name": "Beaulieu Road",
    "station_code": "BEU"
  },
  {
    "country": "GB",
    "latitude": "57.478",
    "longitude": "-4.4698",
    "name": "Beauly",
    "station_code": "BEL"
  },
  {
    "country": "GB",
    "latitude": "53.357651",
    "longitude": "-3.003659",
    "name": "Bebington",
    "station_code": "BEB"
  },
  {
    "country": "GB",
    "latitude": "52.458481",
    "longitude": "1.569547",
    "name": "Beccles",
    "station_code": "BCC"
  },
  {
    "country": "GB",
    "latitude": "51.424767",
    "longitude": "-0.016497",
    "name": "Beckenham Hill",
    "station_code": "BEC"
  },
  {
    "country": "GB",
    "latitude": "51.411446",
    "longitude": "-0.027144",
    "name": "Beckenham Junction",
    "station_code": "BKJ"
  },
  {
    "country": "GB",
    "latitude": "52.136436",
    "longitude": "-0.460739",
    "name": "Bedford",
    "station_code": "10"
  },
  {
    "country": "GB",
    "latitude": "52.129299",
    "longitude": "-0.467348",
    "name": "Bedford St Johns",
    "station_code": "BSJ"
  },
  {
    "country": "GB",
    "latitude": "52.136175",
    "longitude": "-0.47945",
    "name": "Bedford Station",
    "station_code": "BDM"
  },
  {
    "country": "GB",
    "latitude": "50.853638",
    "longitude": "-0.996989",
    "name": "Bedhampton",
    "station_code": "BDH"
  },
  {
    "country": "GB",
    "latitude": "51.440037",
    "longitude": "-2.594184",
    "name": "Bedminster",
    "station_code": "BMT"
  },
  {
    "country": "GB",
    "latitude": "52.479133",
    "longitude": "-1.46749",
    "name": "Bedworth",
    "station_code": "BEH"
  },
  {
    "country": "GB",
    "latitude": "51.379715",
    "longitude": "-1.599077",
    "name": "Bedwyn",
    "station_code": "BDW"
  },
  {
    "country": "GB",
    "latitude": "52.920551",
    "longitude": "-1.207211",
    "name": "Beeston",
    "station_code": "BEE"
  },
  {
    "country": "GB",
    "latitude": "51.261051",
    "longitude": "1.136125",
    "name": "Bekesbourne",
    "station_code": "BKS"
  },
  {
    "country": "GB",
    "latitude": "54.5953",
    "longitude": "-5.9172",
    "name": "Belfast Central",
    "station_code": "BFC"
  },
  {
    "country": "NI",
    "latitude": "-5.91744",
    "longitude": "54.6123",
    "name": "Belfast Central",
    "station_code": ""
  },
  {
    "country": "NI",
    "latitude": "-5.9362",
    "longitude": "54.5942",
    "name": "Belfast Great Victoria Street",
    "station_code": ""
  },
  {
    "country": "NI",
    "latitude": "-6.576",
    "longitude": "54.736",
    "name": "Bellarena",
    "station_code": ""
  },
  {
    "country": "GB",
    "latitude": "53.462181",
    "longitude": "-2.180809",
    "name": "Belle Vue",
    "station_code": "BLV"
  },
  {
    "country": "GB",
    "latitude": "55.857182",
    "longitude": "-4.22547",
    "name": "Bellgrove",
    "station_code": "BLG"
  },
  {
    "country": "GB",
    "latitude": "51.433826",
    "longitude": "-0.020421",
    "name": "Bellingham",
    "station_code": "BGM"
  },
  {
    "country": "GB",
    "latitude": "55.816605",
    "longitude": "-4.025222",
    "name": "Bellshill",
    "station_code": "BLH"
  },
  {
    "country": "GB",
    "latitude": "51.344086",
    "longitude": "-0.199471",
    "name": "Belmont",
    "station_code": "BLM"
  },
  {
    "country": "GB",
    "latitude": "53.024555",
    "longitude": "-1.482622",
    "name": "Belper",
    "station_code": "BLP"
  },
  {
    "country": "GB",
    "latitude": "51.204651",
    "longitude": "0.403518",
    "name": "Beltring",
    "station_code": "BEG"
  },
  {
    "country": "GB",
    "latitude": "51.491936",
    "longitude": "0.152088",
    "name": "Belvedere",
    "station_code": "BVD"
  },
  {
    "country": "GB",
    "latitude": "54.128296",
    "longitude": "-0.180389",
    "name": "Bempton",
    "station_code": "BEM"
  },
  {
    "country": "GB",
    "latitude": "53.926167",
    "longitude": "-1.797429",
    "name": "Ben Rhydding",
    "station_code": "BEY"
  },
  {
    "country": "GB",
    "latitude": "51.543964",
    "longitude": "0.561273",
    "name": "Benfleet",
    "station_code": "BEF"
  },
  {
    "country": "GB",
    "latitude": "54.115791",
    "longitude": "-2.510918",
    "name": "Bentham",
    "station_code": "BEN"
  },
  {
    "country": "GB",
    "latitude": "51.180695",
    "longitude": "-0.868287",
    "name": "Bentley",
    "station_code": "BTY"
  },
  {
    "country": "GB",
    "latitude": "53.542865",
    "longitude": "-1.148788",
    "name": "Bentley (South Yorkshire)",
    "station_code": "BYK"
  },
  {
    "country": "GB",
    "latitude": "50.485535",
    "longitude": "-4.200418",
    "name": "Bere Alston",
    "station_code": "BAS"
  },
  {
    "country": "GB",
    "latitude": "50.450798",
    "longitude": "-4.181901",
    "name": "Bere Ferrers",
    "station_code": "BFE"
  },
  {
    "country": "GB",
    "latitude": "51.763638",
    "longitude": "-0.562498",
    "name": "Berkhamsted",
    "station_code": "BKM"
  },
  {
    "country": "GB",
    "latitude": "52.395851",
    "longitude": "-1.642845",
    "name": "Berkswell",
    "station_code": "BKW"
  },
  {
    "country": "GB",
    "latitude": "52.5029",
    "longitude": "-1.4726",
    "name": "Bermuda Park",
    "station_code": "BEP"
  },
  {
    "country": "GB",
    "latitude": "52.589745",
    "longitude": "1.63043",
    "name": "Berney Arms",
    "station_code": "BYA"
  },
  {
    "country": "GB",
    "latitude": "53.622368",
    "longitude": "-1.797371",
    "name": "Berry Brow",
    "station_code": "BBW"
  },
  {
    "country": "GB",
    "latitude": "51.39838",
    "longitude": "-0.282157",
    "name": "Berrylands",
    "station_code": "BRS"
  },
  {
    "country": "GB",
    "latitude": "50.840569",
    "longitude": "0.164587",
    "name": "Berwick (Sussex)",
    "station_code": "BRK"
  },
  {
    "country": "GB",
    "latitude": "55.774872",
    "longitude": "-2.01112",
    "name": "Berwick-Upon-Tweed",
    "station_code": "BWK"
  },
  {
    "country": "GB",
    "latitude": "53.623531",
    "longitude": "-2.914703",
    "name": "Bescar Lane",
    "station_code": "BES"
  },
  {
    "country": "GB",
    "latitude": "52.562702",
    "longitude": "-1.991116",
    "name": "Bescot Stadium",
    "station_code": "BSC"
  },
  {
    "country": "GB",
    "latitude": "53.5413",
    "longitude": "-2.28667",
    "name": "Besses O\u2019 Th\u2019 Barn Metrolink",
    "station_code": "BOB"
  },
  {
    "country": "GB",
    "latitude": "51.247993",
    "longitude": "-0.26771",
    "name": "Betchworth",
    "station_code": "BTO"
  },
  {
    "country": "GB",
    "latitude": "51.524406",
    "longitude": "-0.059747",
    "name": "Bethnal Green",
    "station_code": "BET"
  },
  {
    "country": "GB",
    "latitude": "53.092056",
    "longitude": "-3.80091",
    "name": "Betws-Y-Coed",
    "station_code": "BYC"
  },
  {
    "country": "GB",
    "latitude": "53.842281",
    "longitude": "-0.423855",
    "name": "Beverley",
    "station_code": "BEV"
  },
  {
    "country": "GB",
    "latitude": "50.840679",
    "longitude": "0.475678",
    "name": "Bexhill",
    "station_code": "BEX"
  },
  {
    "country": "GB",
    "latitude": "51.440742",
    "longitude": "0.148248",
    "name": "Bexley",
    "station_code": "BXY"
  },
  {
    "country": "GB",
    "latitude": "51.463493",
    "longitude": "0.133471",
    "name": "Bexleyheath",
    "station_code": "BXH"
  },
  {
    "country": "GB",
    "latitude": "51.8999800",
    "longitude": "-1.1535700",
    "name": "Bicester",
    "station_code": "11"
  },
  {
    "country": "GB",
    "latitude": "51.903401",
    "longitude": "-1.150517",
    "name": "Bicester North",
    "station_code": "BCS"
  },
  {
    "country": "GB",
    "latitude": "51.893429",
    "longitude": "-1.148393",
    "name": "Bicester Village",
    "station_code": "BIT"
  },
  {
    "country": "GB",
    "latitude": "51.40033",
    "longitude": "0.044272",
    "name": "Bickley",
    "station_code": "BKL"
  },
  {
    "country": "GB",
    "latitude": "53.40913",
    "longitude": "-3.078589",
    "name": "Bidston",
    "station_code": "BID"
  },
  {
    "country": "GB",
    "latitude": "52.085068",
    "longitude": "-0.260294",
    "name": "Biggleswade",
    "station_code": "BIW"
  },
  {
    "country": "GB",
    "latitude": "52.623695",
    "longitude": "-2.186101",
    "name": "Bilbrook",
    "station_code": "BBK"
  },
  {
    "country": "GB",
    "latitude": "51.628834",
    "longitude": "0.418656",
    "name": "Billericay",
    "station_code": "BIC"
  },
  {
    "country": "GB",
    "latitude": "54.606327",
    "longitude": "-1.278525",
    "name": "Billingham",
    "station_code": "BIL"
  },
  {
    "country": "GB",
    "latitude": "51.014938",
    "longitude": "-0.450348",
    "name": "Billingshurst",
    "station_code": "BIG"
  },
  {
    "country": "GB",
    "latitude": "52.954536",
    "longitude": "-0.952044",
    "name": "Bingham",
    "station_code": "BIN"
  },
  {
    "country": "GB",
    "latitude": "53.84803",
    "longitude": "-1.837327",
    "name": "Bingley",
    "station_code": "BIY"
  },
  {
    "country": "GB",
    "latitude": "51.521687",
    "longitude": "-3.203502",
    "name": "Birchgrove",
    "station_code": "BCG"
  },
  {
    "country": "GB",
    "latitude": "51.377956",
    "longitude": "1.300781",
    "name": "Birchington-On-Sea",
    "station_code": "BCH"
  },
  {
    "country": "GB",
    "latitude": "53.41193",
    "longitude": "-2.52802",
    "name": "Birchwood",
    "station_code": "BWD"
  },
  {
    "country": "GB",
    "latitude": "51.403847",
    "longitude": "-0.056218",
    "name": "Birkbeck",
    "station_code": "BIK"
  },
  {
    "country": "GB",
    "latitude": "53.633514",
    "longitude": "-3.014742",
    "name": "Birkdale",
    "station_code": "BDL"
  },
  {
    "country": "GB",
    "latitude": "53.388244",
    "longitude": "-3.020897",
    "name": "Birkenhead Central",
    "station_code": "BKC"
  },
  {
    "country": "GB",
    "latitude": "53.39469",
    "longitude": "-3.01365",
    "name": "Birkenhead Hamilton Square",
    "station_code": "BKQ"
  },
  {
    "country": "GB",
    "latitude": "53.404819",
    "longitude": "-3.057425",
    "name": "Birkenhead North",
    "station_code": "BKN"
  },
  {
    "country": "GB",
    "latitude": "53.397417",
    "longitude": "-3.03927",
    "name": "Birkenhead Park",
    "station_code": "BKP"
  },
  {
    "country": "GB",
    "latitude": "52.483056",
    "longitude": "-1.893611",
    "name": "Birmingham",
    "station_code": "13"
  },
  {
    "country": "GB",
    "latitude": "52.450673",
    "longitude": "-1.725149",
    "name": "Birmingham International",
    "station_code": "BHI"
  },
  {
    "country": "GB",
    "latitude": "52.479053",
    "longitude": "-1.892483",
    "name": "Birmingham Moor Street",
    "station_code": "BMO"
  },
  {
    "country": "GB",
    "latitude": "52.478153",
    "longitude": "-1.898375",
    "name": "Birmingham New Street",
    "station_code": "BHM"
  },
  {
    "country": "GB",
    "latitude": "52.483555",
    "longitude": "-1.899833",
    "name": "Birmingham Snow Hill",
    "station_code": "BSW"
  },
  {
    "country": "GB",
    "latitude": "54.657482",
    "longitude": "-1.677545",
    "name": "Bishop Auckland",
    "station_code": "BIA"
  },
  {
    "country": "GB",
    "latitude": "55.903927",
    "longitude": "-4.224958",
    "name": "Bishopbriggs",
    "station_code": "BBG"
  },
  {
    "country": "GB",
    "latitude": "51.866692",
    "longitude": "0.16557",
    "name": "Bishops Stortford",
    "station_code": "BIS"
  },
  {
    "country": "GB",
    "latitude": "50.78185",
    "longitude": "0.083826",
    "name": "Bishopstone (Hill Rise by Bus)",
    "station_code": "BIR"
  },
  {
    "country": "GB",
    "latitude": "50.780014",
    "longitude": "0.082352",
    "name": "Bishopstone (Hill Rise)",
    "station_code": "BIP"
  },
  {
    "country": "GB",
    "latitude": "55.902206",
    "longitude": "-4.501637",
    "name": "Bishopton",
    "station_code": "BPT"
  },
  {
    "country": "GB",
    "latitude": "50.918343",
    "longitude": "-1.378279",
    "name": "Bitterne",
    "station_code": "BTE"
  },
  {
    "country": "GB",
    "latitude": "53.746513",
    "longitude": "-2.479135",
    "name": "Blackburn",
    "station_code": "BBN"
  },
  {
    "country": "GB",
    "latitude": "51.465706",
    "longitude": "0.008317",
    "name": "Blackheath",
    "station_code": "BKH"
  },
  {
    "country": "GB",
    "latitude": "51.586143",
    "longitude": "-0.04123",
    "name": "Blackhorse Road",
    "station_code": "BHO"
  },
  {
    "country": "GB",
    "latitude": "53.81417",
    "longitude": "-3.05028",
    "name": "Blackpool",
    "station_code": "14"
  },
  {
    "country": "GB",
    "latitude": "53.822772",
    "longitude": "-3.049908",
    "name": "Blackpool North",
    "station_code": "BPN"
  },
  {
    "country": "GB",
    "latitude": "53.788154",
    "longitude": "-3.053856",
    "name": "Blackpool Pleasure Beach",
    "station_code": "BPB"
  },
  {
    "country": "GB",
    "latitude": "53.798611",
    "longitude": "-3.049081",
    "name": "Blackpool South",
    "station_code": "BPS"
  },
  {
    "country": "GB",
    "latitude": "55.88368",
    "longitude": "-3.75047",
    "name": "Blackridge",
    "station_code": "BKR"
  },
  {
    "country": "GB",
    "latitude": "53.591522",
    "longitude": "-2.56954",
    "name": "Blackrod",
    "station_code": "BLK"
  },
  {
    "country": "GB",
    "latitude": "51.33176",
    "longitude": "-0.777023",
    "name": "Blackwater",
    "station_code": "BAW"
  },
  {
    "country": "GB",
    "latitude": "52.996284",
    "longitude": "-3.944449",
    "name": "Blaenau Ffestiniog",
    "station_code": "BFF"
  },
  {
    "country": "GB",
    "latitude": "56.765614",
    "longitude": "-3.85025",
    "name": "Blair Atholl",
    "station_code": "BLA"
  },
  {
    "country": "GB",
    "latitude": "55.866653",
    "longitude": "-4.04221",
    "name": "Blairhill",
    "station_code": "BAI"
  },
  {
    "country": "GB",
    "latitude": "52.605054",
    "longitude": "-1.844888",
    "name": "Blake Street",
    "station_code": "BKT"
  },
  {
    "country": "GB",
    "latitude": "52.406147",
    "longitude": "-2.176365",
    "name": "Blakedown",
    "station_code": "BKD"
  },
  {
    "country": "GB",
    "latitude": "55.7976",
    "longitude": "-4.086466",
    "name": "Blantyre",
    "station_code": "BLT"
  },
  {
    "country": "GB",
    "latitude": "54.965813",
    "longitude": "-1.712578",
    "name": "Blaydon",
    "station_code": "BLO"
  },
  {
    "country": "GB",
    "latitude": "53.041649",
    "longitude": "-0.942469",
    "name": "Bleasby",
    "station_code": "BSB"
  },
  {
    "country": "GB",
    "latitude": "51.995339",
    "longitude": "-0.736368",
    "name": "Bletchley",
    "station_code": "BLY"
  },
  {
    "country": "GB",
    "latitude": "52.625637",
    "longitude": "-2.019173",
    "name": "Bloxwich North",
    "station_code": "BWN"
  },
  {
    "country": "GB",
    "latitude": "52.61853",
    "longitude": "-2.011783",
    "name": "Bloxwich Station",
    "station_code": "BLX"
  },
  {
    "country": "GB",
    "latitude": "53.487675",
    "longitude": "-3.039889",
    "name": "Blundellsands & Crosby",
    "station_code": "BLN"
  },
  {
    "country": "GB",
    "latitude": "52.968124",
    "longitude": "-2.066966",
    "name": "Blythe Bridge",
    "station_code": "BYB"
  },
  {
    "country": "GB",
    "latitude": "50.445822",
    "longitude": "-4.663026",
    "name": "Bodmin Parkway",
    "station_code": "BOD"
  },
  {
    "country": "GB",
    "latitude": "53.204292",
    "longitude": "-4.418067",
    "name": "Bodorgan",
    "station_code": "BOR"
  },
  {
    "country": "GB",
    "latitude": "50.786594",
    "longitude": "-0.676384",
    "name": "Bognor Regis",
    "station_code": "BOG"
  },
  {
    "country": "GB",
    "latitude": "55.937267",
    "longitude": "-4.713676",
    "name": "Bogston",
    "station_code": "BGS"
  },
  {
    "country": "GB",
    "latitude": "53.573983",
    "longitude": "-2.425661",
    "name": "Bolton",
    "station_code": "BON"
  },
  {
    "country": "GB",
    "latitude": "53.518986",
    "longitude": "-1.312217",
    "name": "Bolton-On-Dearne",
    "station_code": "BTD"
  },
  {
    "country": "GB",
    "latitude": "51.288334",
    "longitude": "-0.385224",
    "name": "Bookham",
    "station_code": "BKA"
  },
  {
    "country": "GB",
    "latitude": "53.4457",
    "longitude": "-2.9891",
    "name": "Bootle",
    "station_code": "16"
  },
  {
    "country": "GB",
    "latitude": "54.290249",
    "longitude": "-3.394818",
    "name": "Bootle (Cumbria)",
    "station_code": "BOC"
  },
  {
    "country": "GB",
    "latitude": "53.453357",
    "longitude": "-2.994676",
    "name": "Bootle New Strand",
    "station_code": "BNW"
  },
  {
    "country": "GB",
    "latitude": "53.446559",
    "longitude": "-2.995791",
    "name": "Bootle Oriel Road",
    "station_code": "BOT"
  },
  {
    "country": "GB",
    "latitude": "52.471844",
    "longitude": "-1.877771",
    "name": "Bordesley",
    "station_code": "BBS"
  },
  {
    "country": "GB",
    "latitude": "51.29295",
    "longitude": "0.306296",
    "name": "Borough Green & Wrotham",
    "station_code": "BRG"
  },
  {
    "country": "GB",
    "latitude": "52.491001",
    "longitude": "-4.050236",
    "name": "Borth",
    "station_code": "BRH"
  },
  {
    "country": "GB",
    "latitude": "50.843262",
    "longitude": "-0.846655",
    "name": "Bosham",
    "station_code": "BOH"
  },
  {
    "country": "GB",
    "latitude": "52.978802",
    "longitude": "-0.030949",
    "name": "Boston",
    "station_code": "BSN"
  },
  {
    "country": "NI",
    "latitude": "-5.9328",
    "longitude": "54.5884",
    "name": "Botanic",
    "station_code": ""
  },
  {
    "country": "GB",
    "latitude": "50.916748",
    "longitude": "-1.258809",
    "name": "Botley",
    "station_code": "BOE"
  },
  {
    "country": "GB",
    "latitude": "52.944962",
    "longitude": "-0.796012",
    "name": "Bottesford",
    "station_code": "BTF"
  },
  {
    "country": "GB",
    "latitude": "51.576538",
    "longitude": "-0.711287",
    "name": "Bourne End",
    "station_code": "BNE"
  },
  {
    "country": "GB",
    "latitude": "50.727478",
    "longitude": "-1.863955",
    "name": "Bournemouth",
    "station_code": "BMH"
  },
  {
    "country": "GB",
    "latitude": "52.426937",
    "longitude": "-1.926434",
    "name": "Bournville",
    "station_code": "BRV"
  },
  {
    "country": "GB",
    "latitude": "52.003475",
    "longitude": "-0.696154",
    "name": "Bow Brickhill",
    "station_code": "BWB"
  },
  {
    "country": "GB",
    "latitude": "51.607216",
    "longitude": "-0.119761",
    "name": "Bowes Park",
    "station_code": "BOP"
  },
  {
    "country": "GB",
    "latitude": "53.5243",
    "longitude": "-2.25035",
    "name": "Bowker Vale Metrolink",
    "station_code": "BKV"
  },
  {
    "country": "GB",
    "latitude": "55.931129",
    "longitude": "-4.493879",
    "name": "Bowling",
    "station_code": "BWG"
  },
  {
    "country": "GB",
    "latitude": "51.253376",
    "longitude": "-0.329128",
    "name": "Box Hill & Westhumble",
    "station_code": "BXW"
  },
  {
    "country": "GB",
    "latitude": "51.413319",
    "longitude": "-0.751833",
    "name": "Bracknell",
    "station_code": "BCE"
  },
  {
    "country": "GB",
    "latitude": "53.8000",
    "longitude": "-1.75206",
    "name": "Bradford",
    "station_code": "17"
  },
  {
    "country": "GB",
    "latitude": "53.79575",
    "longitude": "-1.752505",
    "name": "Bradford Forster Square",
    "station_code": "BDQ"
  },
  {
    "country": "GB",
    "latitude": "53.791196",
    "longitude": "-1.749701",
    "name": "Bradford Interchange",
    "station_code": "BDI"
  },
  {
    "country": "GB",
    "latitude": "51.345058",
    "longitude": "-2.252669",
    "name": "Bradford-On-Avon",
    "station_code": "BOA"
  },
  {
    "country": "GB",
    "latitude": "50.678509",
    "longitude": "-1.13801",
    "name": "Brading",
    "station_code": "BDN"
  },
  {
    "country": "GB",
    "latitude": "51.874989",
    "longitude": "0.558261",
    "name": "Braintree",
    "station_code": "BTR"
  },
  {
    "country": "GB",
    "latitude": "51.869316",
    "longitude": "0.568258",
    "name": "Braintree Freeport",
    "station_code": "BTP"
  },
  {
    "country": "GB",
    "latitude": "53.359959",
    "longitude": "-2.162249",
    "name": "Bramhall",
    "station_code": "BML"
  },
  {
    "country": "GB",
    "latitude": "51.32988",
    "longitude": "-1.061265",
    "name": "Bramley (Hants)",
    "station_code": "BMY"
  },
  {
    "country": "GB",
    "latitude": "53.803532",
    "longitude": "-1.630985",
    "name": "Bramley (W Yorks)",
    "station_code": "BLE"
  },
  {
    "country": "GB",
    "latitude": "54.932655",
    "longitude": "-2.703814",
    "name": "Brampton (Cumbria)",
    "station_code": "BMP"
  },
  {
    "country": "GB",
    "latitude": "52.395397",
    "longitude": "1.543871",
    "name": "Brampton (Suffolk)",
    "station_code": "BRP"
  },
  {
    "country": "GB",
    "latitude": "55.940647",
    "longitude": "-4.803598",
    "name": "Branchton",
    "station_code": "BCN"
  },
  {
    "country": "GB",
    "latitude": "52.454479",
    "longitude": "0.624116",
    "name": "Brandon",
    "station_code": "BND"
  },
  {
    "country": "GB",
    "latitude": "50.727528",
    "longitude": "-1.919211",
    "name": "Branksome",
    "station_code": "BSM"
  },
  {
    "country": "GB",
    "latitude": "54.43956",
    "longitude": "-3.543406",
    "name": "Braystones",
    "station_code": "BYS"
  },
  {
    "country": "GB",
    "latitude": "53.422939",
    "longitude": "-2.109823",
    "name": "Bredbury",
    "station_code": "BDY"
  },
  {
    "country": "GB",
    "latitude": "55.827351",
    "longitude": "-3.668147",
    "name": "Breich",
    "station_code": "BRC"
  },
  {
    "country": "GB",
    "latitude": "51.487804",
    "longitude": "-0.309048",
    "name": "Brentford",
    "station_code": "BFD"
  },
  {
    "country": "GB",
    "latitude": "51.61322",
    "longitude": "0.30083",
    "name": "Brentwood",
    "station_code": "BRE"
  },
  {
    "country": "GB",
    "latitude": "51.705223",
    "longitude": "-0.358846",
    "name": "Bricket Wood",
    "station_code": "BWO"
  },
  {
    "country": "GB",
    "latitude": "56.157429",
    "longitude": "-3.956166",
    "name": "Bridge of Allan",
    "station_code": "BEA"
  },
  {
    "country": "GB",
    "latitude": "56.515926",
    "longitude": "-4.763048",
    "name": "Bridge of Orchy",
    "station_code": "BRO"
  },
  {
    "country": "GB",
    "latitude": "51.506481",
    "longitude": "-3.576296",
    "name": "Bridgend",
    "station_code": "BGN"
  },
  {
    "country": "GB",
    "latitude": "55.849968",
    "longitude": "-4.226668",
    "name": "Bridgeton",
    "station_code": "BDG"
  },
  {
    "country": "GB",
    "latitude": "51.128025",
    "longitude": "-2.99031",
    "name": "Bridgwater",
    "station_code": "BWT"
  },
  {
    "country": "GB",
    "latitude": "54.084545",
    "longitude": "-0.200659",
    "name": "Bridlington",
    "station_code": "BDT"
  },
  {
    "country": "GB",
    "latitude": "53.824535",
    "longitude": "-2.236959",
    "name": "Brierfield",
    "station_code": "BRF"
  },
  {
    "country": "GB",
    "latitude": "53.549137",
    "longitude": "-0.486094",
    "name": "Brigg",
    "station_code": "BGG"
  },
  {
    "country": "GB",
    "latitude": "53.698734",
    "longitude": "-1.781855",
    "name": "Brighouse",
    "station_code": "BGH"
  },
  {
    "country": "GB",
    "latitude": "50.829659",
    "longitude": "-0.141234",
    "name": "Brighton",
    "station_code": "BTN"
  },
  {
    "country": "GB",
    "latitude": "51.655224",
    "longitude": "-0.031022",
    "name": "Brimsdown",
    "station_code": "BMD"
  },
  {
    "country": "GB",
    "latitude": "53.431881",
    "longitude": "-2.134097",
    "name": "Brinnington",
    "station_code": "BNT"
  },
  {
    "country": "GB",
    "latitude": "",
    "longitude": "",
    "name": "Bristol",
    "station_code": "191"
  },
  {
    "country": "GB",
    "latitude": "51.514061",
    "longitude": "-2.53461",
    "name": "Bristol Parkway",
    "station_code": "BPW"
  },
  {
    "country": "GB",
    "latitude": "51.449093",
    "longitude": "-2.581349",
    "name": "Bristol Temple Meads",
    "station_code": "BRI"
  },
  {
    "country": "GB",
    "latitude": "51.710266",
    "longitude": "-3.228765",
    "name": "Brithdir",
    "station_code": "BHD"
  },
  {
    "country": "GB",
    "latitude": "54.609263",
    "longitude": "-1.108324",
    "name": "British Steel Redcar",
    "station_code": "RBS"
  },
  {
    "country": "GB",
    "latitude": "51.637852",
    "longitude": "-3.8193",
    "name": "Briton Ferry",
    "station_code": "BNF"
  },
  {
    "country": "GB",
    "latitude": "51.463245",
    "longitude": "-0.114164",
    "name": "Brixton",
    "station_code": "BRX"
  },
  {
    "country": "GB",
    "latitude": "53.40654",
    "longitude": "-2.893267",
    "name": "Broad Green",
    "station_code": "BGE"
  },
  {
    "country": "GB",
    "latitude": "53.440968",
    "longitude": "-2.01653",
    "name": "Broadbottom",
    "station_code": "BDB"
  },
  {
    "country": "GB",
    "latitude": "51.360653",
    "longitude": "1.43317",
    "name": "Broadstairs",
    "station_code": "BSR"
  },
  {
    "country": "GB",
    "latitude": "53.47476",
    "longitude": "-2.29526",
    "name": "Broadway Metrolink",
    "station_code": "BRD"
  },
  {
    "country": "GB",
    "latitude": "50.816708",
    "longitude": "-1.574112",
    "name": "Brockenhurst",
    "station_code": "BCU"
  },
  {
    "country": "GB",
    "latitude": "53.597149",
    "longitude": "-1.770299",
    "name": "Brockholes",
    "station_code": "BHS"
  },
  {
    "country": "GB",
    "latitude": "51.464684",
    "longitude": "-0.037797",
    "name": "Brockley",
    "station_code": "BCY"
  },
  {
    "country": "GB",
    "latitude": "54.958672",
    "longitude": "-1.462749",
    "name": "Brockley Whins",
    "station_code": "BNR"
  },
  {
    "country": "GB",
    "latitude": "53.329899",
    "longitude": "-2.989644",
    "name": "Bromborough Rake",
    "station_code": "BMR"
  },
  {
    "country": "GB",
    "latitude": "53.322146",
    "longitude": "-2.987058",
    "name": "Bromborough Station",
    "station_code": "BOM"
  },
  {
    "country": "GB",
    "latitude": "53.613743",
    "longitude": "-2.409614",
    "name": "Bromley Cross",
    "station_code": "BMC"
  },
  {
    "country": "GB",
    "latitude": "51.408894",
    "longitude": "0.017325",
    "name": "Bromley North",
    "station_code": "BMN"
  },
  {
    "country": "GB",
    "latitude": "51.399887",
    "longitude": "0.018374",
    "name": "Bromley South",
    "station_code": "BMS"
  },
  {
    "country": "GB",
    "latitude": "52.322662",
    "longitude": "-2.048379",
    "name": "Bromsgrove",
    "station_code": "BMV"
  },
  {
    "country": "GB",
    "latitude": "51.540896",
    "longitude": "-0.209955",
    "name": "Brondesbury Park",
    "station_code": "BSP"
  },
  {
    "country": "GB",
    "latitude": "51.545574",
    "longitude": "-0.203063",
    "name": "Brondesbury Station",
    "station_code": "BSY"
  },
  {
    "country": "GB",
    "latitude": "53.41716",
    "longitude": "-2.32646",
    "name": "Brooklands Metrolink",
    "station_code": "BOK"
  },
  {
    "country": "GB",
    "latitude": "51.720955",
    "longitude": "-0.204811",
    "name": "Brookmans Park",
    "station_code": "BPK"
  },
  {
    "country": "GB",
    "latitude": "51.303215",
    "longitude": "-0.635753",
    "name": "Brookwood",
    "station_code": "BKO"
  },
  {
    "country": "GB",
    "latitude": "52.422745",
    "longitude": "-2.88524",
    "name": "Broome",
    "station_code": "BME"
  },
  {
    "country": "GB",
    "latitude": "53.740131",
    "longitude": "-0.673328",
    "name": "Broomfleet",
    "station_code": "BMF"
  },
  {
    "country": "GB",
    "latitude": "58.012657",
    "longitude": "-3.853251",
    "name": "Brora",
    "station_code": "BRA"
  },
  {
    "country": "GB",
    "latitude": "53.726452",
    "longitude": "-0.578255",
    "name": "Brough",
    "station_code": "BUH"
  },
  {
    "country": "GB",
    "latitude": "56.467213",
    "longitude": "-2.873153",
    "name": "Broughty Ferry",
    "station_code": "BYF"
  },
  {
    "country": "GB",
    "latitude": "51.745712",
    "longitude": "-0.011157",
    "name": "Broxbourne",
    "station_code": "BXB"
  },
  {
    "country": "GB",
    "latitude": "51.592918",
    "longitude": "-0.06982",
    "name": "Bruce Grove",
    "station_code": "BCV"
  },
  {
    "country": "GB",
    "latitude": "52.623035",
    "longitude": "1.418896",
    "name": "Brundall Gardens",
    "station_code": "BGA"
  },
  {
    "country": "GB",
    "latitude": "52.619747",
    "longitude": "1.439316",
    "name": "Brundall Station",
    "station_code": "BDA"
  },
  {
    "country": "GB",
    "latitude": "55.94143",
    "longitude": "-3.10064",
    "name": "Brunstane",
    "station_code": "BSU"
  },
  {
    "country": "GB",
    "latitude": "53.382153",
    "longitude": "-2.975665",
    "name": "Brunswick",
    "station_code": "BRW"
  },
  {
    "country": "GB",
    "latitude": "51.111584",
    "longitude": "-2.447103",
    "name": "Bruton",
    "station_code": "BRU"
  },
  {
    "country": "GB",
    "latitude": "53.499893",
    "longitude": "-2.647233",
    "name": "Bryn",
    "station_code": "BYN"
  },
  {
    "country": "GB",
    "latitude": "52.59816",
    "longitude": "1.47013",
    "name": "Buckenham",
    "station_code": "BUC"
  },
  {
    "country": "GB",
    "latitude": "53.163021",
    "longitude": "-3.055948",
    "name": "Buckley",
    "station_code": "BCK"
  },
  {
    "country": "GB",
    "latitude": "52.357525",
    "longitude": "-2.948551",
    "name": "Bucknell",
    "station_code": "BUK"
  },
  {
    "country": "GB",
    "latitude": "53.67283",
    "longitude": "-2.66447",
    "name": "Buckshaw Parkway",
    "station_code": "BSV"
  },
  {
    "country": "GB",
    "latitude": "50.399979",
    "longitude": "-4.791736",
    "name": "Bugle",
    "station_code": "BGL"
  },
  {
    "country": "GB",
    "latitude": "52.169289",
    "longitude": "-3.427068",
    "name": "Builth Road",
    "station_code": "BHR"
  },
  {
    "country": "GB",
    "latitude": "52.999625",
    "longitude": "-1.196115",
    "name": "Bulwell",
    "station_code": "BLW"
  },
  {
    "country": "GB",
    "latitude": "51.97094",
    "longitude": "0.769021",
    "name": "Bures",
    "station_code": "BUE"
  },
  {
    "country": "GB",
    "latitude": "50.953552",
    "longitude": "-0.127749",
    "name": "Burgess Hill",
    "station_code": "BUG"
  },
  {
    "country": "GB",
    "latitude": "53.808743",
    "longitude": "-1.576277",
    "name": "Burley Park",
    "station_code": "BUY"
  },
  {
    "country": "GB",
    "latitude": "53.908112",
    "longitude": "-1.753363",
    "name": "Burley-In-Wharfedale",
    "station_code": "BUW"
  },
  {
    "country": "GB",
    "latitude": "53.421205",
    "longitude": "-2.215896",
    "name": "Burnage",
    "station_code": "BNA"
  },
  {
    "country": "GB",
    "latitude": "54.355305",
    "longitude": "-2.766231",
    "name": "Burneside",
    "station_code": "BUD"
  },
  {
    "country": "GB",
    "latitude": "51.523538",
    "longitude": "-0.647335",
    "name": "Burnham",
    "station_code": "BNM"
  },
  {
    "country": "GB",
    "latitude": "51.633526",
    "longitude": "0.813459",
    "name": "Burnham-On-Crouch",
    "station_code": "BUU"
  },
  {
    "country": "GB",
    "latitude": "53.789",
    "longitude": "-2.248",
    "name": "Burnley",
    "station_code": "24"
  },
  {
    "country": "GB",
    "latitude": "53.791237",
    "longitude": "-2.258014",
    "name": "Burnley Barracks",
    "station_code": "BUB"
  },
  {
    "country": "GB",
    "latitude": "53.793776",
    "longitude": "-2.244644",
    "name": "Burnley Central",
    "station_code": "BNC"
  },
  {
    "country": "GB",
    "latitude": "53.784962",
    "longitude": "-2.248883",
    "name": "Burnley Manchester Road",
    "station_code": "BYM"
  },
  {
    "country": "GB",
    "latitude": "55.817123",
    "longitude": "-4.204029",
    "name": "Burnside",
    "station_code": "BUI"
  },
  {
    "country": "GB",
    "latitude": "56.057133",
    "longitude": "-3.233214",
    "name": "Burntisland",
    "station_code": "BTS"
  },
  {
    "country": "GB",
    "latitude": "53.60519",
    "longitude": "-2.841758",
    "name": "Burscough Bridge",
    "station_code": "BCB"
  },
  {
    "country": "GB",
    "latitude": "53.598011",
    "longitude": "-2.840105",
    "name": "Burscough Junction",
    "station_code": "BCJ"
  },
  {
    "country": "GB",
    "latitude": "50.882858",
    "longitude": "-1.304835",
    "name": "Bursledon",
    "station_code": "BUO"
  },
  {
    "country": "GB",
    "latitude": "52.984047",
    "longitude": "-1.040698",
    "name": "Burton Joyce",
    "station_code": "BUJ"
  },
  {
    "country": "GB",
    "latitude": "53.42905",
    "longitude": "-2.24076",
    "name": "Burton Road Metrolink",
    "station_code": "BRZ"
  },
  {
    "country": "GB",
    "latitude": "52.805798",
    "longitude": "-1.64246",
    "name": "Burton-On-Trent",
    "station_code": "BUT"
  },
  {
    "country": "GB",
    "latitude": "53.59112",
    "longitude": "-2.29713",
    "name": "Bury Metrolink",
    "station_code": "BUR"
  },
  {
    "country": "GB",
    "latitude": "52.253727",
    "longitude": "0.713355",
    "name": "Bury St Edmunds",
    "station_code": "BSE"
  },
  {
    "country": "GB",
    "latitude": "55.780109",
    "longitude": "-4.262551",
    "name": "Busby",
    "station_code": "BUS"
  },
  {
    "country": "GB",
    "latitude": "51.642365",
    "longitude": "-0.06916",
    "name": "Bush Hill Park",
    "station_code": "BHK"
  },
  {
    "country": "GB",
    "latitude": "51.644669",
    "longitude": "-0.384806",
    "name": "Bushey",
    "station_code": "BSH"
  },
  {
    "country": "GB",
    "latitude": "52.592376",
    "longitude": "-1.838163",
    "name": "Butlers Lane",
    "station_code": "BUL"
  },
  {
    "country": "GB",
    "latitude": "50.990475",
    "longitude": "0.131651",
    "name": "Buxted",
    "station_code": "BXD"
  },
  {
    "country": "GB",
    "latitude": "53.26058",
    "longitude": "-1.913086",
    "name": "Buxton Station",
    "station_code": "BUX"
  },
  {
    "country": "GB",
    "latitude": "51.349869",
    "longitude": "-0.480714",
    "name": "Byfleet & New Haw",
    "station_code": "BFN"
  },
  {
    "country": "GB",
    "latitude": "51.67276",
    "longitude": "-4.098396",
    "name": "Bynea",
    "station_code": "BYE"
  },
  {
    "country": "GB",
    "latitude": "51.412422",
    "longitude": "-3.248087",
    "name": "Cadoxton",
    "station_code": "CAD"
  },
  {
    "country": "GB",
    "latitude": "53.107922",
    "longitude": "-3.033069",
    "name": "Caergwrle",
    "station_code": "CGW"
  },
  {
    "country": "GB",
    "latitude": "51.571903",
    "longitude": "-3.217805",
    "name": "Caerphilly",
    "station_code": "CPH"
  },
  {
    "country": "GB",
    "latitude": "52.516262",
    "longitude": "-3.43387",
    "name": "Caersws",
    "station_code": "CWS"
  },
  {
    "country": "GB",
    "latitude": "55.88791",
    "longitude": "-3.88978",
    "name": "Caldercruix",
    "station_code": "CAC"
  },
  {
    "country": "GB",
    "latitude": "51.58474",
    "longitude": "-2.760598",
    "name": "Caldicot",
    "station_code": "CDT"
  },
  {
    "country": "GB",
    "latitude": "51.543301",
    "longitude": "-0.115177",
    "name": "Caledonian Road & Barnsbury",
    "station_code": "CIR"
  },
  {
    "country": "GB",
    "latitude": "50.497487",
    "longitude": "-4.208665",
    "name": "Calstock",
    "station_code": "CSK"
  },
  {
    "country": "GB",
    "latitude": "51.71701",
    "longitude": "-2.366194",
    "name": "Cam & Dursley",
    "station_code": "CDU"
  },
  {
    "country": "GB",
    "latitude": "51.335911",
    "longitude": "-0.745328",
    "name": "Camberley",
    "station_code": "CAM"
  },
  {
    "country": "GB",
    "latitude": "50.210392",
    "longitude": "-5.297921",
    "name": "Camborne",
    "station_code": "CBN"
  },
  {
    "country": "GB",
    "latitude": "51.53157",
    "longitude": "-0.057997",
    "name": "Cambridge Heath",
    "station_code": "CBH"
  },
  {
    "country": "GB",
    "latitude": "52.194519",
    "longitude": "0.137584",
    "name": "Cambridge Station",
    "station_code": "CBG"
  },
  {
    "country": "GB",
    "latitude": "55.819458",
    "longitude": "-4.173839",
    "name": "Cambuslang",
    "station_code": "CBL"
  },
  {
    "country": "GB",
    "latitude": "51.541889",
    "longitude": "-0.139764",
    "name": "Camden Road",
    "station_code": "CMD"
  },
  {
    "country": "GB",
    "latitude": "56.006775",
    "longitude": "-3.817015",
    "name": "Camelon",
    "station_code": "CMO"
  },
  {
    "country": "GB",
    "latitude": "51.49823",
    "longitude": "-0.05076",
    "name": "Canada Water",
    "station_code": "ZCW"
  },
  {
    "country": "GB",
    "latitude": "52.399418",
    "longitude": "-1.547232",
    "name": "Canley",
    "station_code": "CNL"
  },
  {
    "country": "GB",
    "latitude": "52.686768",
    "longitude": "-2.022158",
    "name": "Cannock",
    "station_code": "CAO"
  },
  {
    "country": "GB",
    "latitude": "51.548747",
    "longitude": "-0.091614",
    "name": "Canonbury",
    "station_code": "CNN"
  },
  {
    "country": "GB",
    "latitude": "51.275",
    "longitude": "1.087",
    "name": "Canterbury",
    "station_code": "26"
  },
  {
    "country": "GB",
    "latitude": "51.275261",
    "longitude": "1.075434",
    "name": "Canterbury East",
    "station_code": "CBE"
  },
  {
    "country": "GB",
    "latitude": "51.284279",
    "longitude": "1.074608",
    "name": "Canterbury West",
    "station_code": "CBW"
  },
  {
    "country": "GB",
    "latitude": "52.578907",
    "longitude": "1.512899",
    "name": "Cantley",
    "station_code": "CNY"
  },
  {
    "country": "GB",
    "latitude": "53.260155",
    "longitude": "-2.942908",
    "name": "Capenhurst",
    "station_code": "CPU"
  },
  {
    "country": "GB",
    "latitude": "50.19746",
    "longitude": "-5.463815",
    "name": "Carbis Bay",
    "station_code": "CBB"
  },
  {
    "country": "GB",
    "latitude": "56.141308",
    "longitude": "-3.261651",
    "name": "Cardenden",
    "station_code": "CDD"
  },
  {
    "country": "GB",
    "latitude": "",
    "longitude": "",
    "name": "Cardiff",
    "station_code": "32"
  },
  {
    "country": "GB",
    "latitude": "51.466324",
    "longitude": "-3.166049",
    "name": "Cardiff Bay",
    "station_code": "CDB"
  },
  {
    "country": "GB",
    "latitude": "51.475193",
    "longitude": "-3.177794",
    "name": "Cardiff Central",
    "station_code": "CDF"
  },
  {
    "country": "GB",
    "latitude": "51.396667",
    "longitude": "-3.343333",
    "name": "Cardiff International Airport",
    "station_code": "XCF"
  },
  {
    "country": "GB",
    "latitude": "51.482464",
    "longitude": "-3.170782",
    "name": "Cardiff Queen Street",
    "station_code": "CDQ"
  },
  {
    "country": "GB",
    "latitude": "55.853252",
    "longitude": "-4.340297",
    "name": "Cardonald",
    "station_code": "CDO"
  },
  {
    "country": "GB",
    "latitude": "55.960163",
    "longitude": "-4.652782",
    "name": "Cardross",
    "station_code": "CDR"
  },
  {
    "country": "GB",
    "latitude": "55.806938",
    "longitude": "-3.956112",
    "name": "Carfin",
    "station_code": "CRF"
  },
  {
    "country": "GB",
    "latitude": "54.177513",
    "longitude": "-2.972746",
    "name": "Cark",
    "station_code": "CAK"
  },
  {
    "country": "GB",
    "latitude": "54.890675",
    "longitude": "-2.933833",
    "name": "Carlisle",
    "station_code": "CAR"
  },
  {
    "country": "GB",
    "latitude": "52.964573",
    "longitude": "-1.078357",
    "name": "Carlton Station",
    "station_code": "CTO"
  },
  {
    "country": "GB",
    "latitude": "55.730408",
    "longitude": "-3.848761",
    "name": "Carluke",
    "station_code": "CLU"
  },
  {
    "country": "GB",
    "latitude": "51.853233",
    "longitude": "-4.305732",
    "name": "Carmarthen",
    "station_code": "CMN"
  },
  {
    "country": "GB",
    "latitude": "55.834053",
    "longitude": "-4.161873",
    "name": "Carmyle",
    "station_code": "CML"
  },
  {
    "country": "NI",
    "latitude": "-5.4221",
    "longitude": "54.3958",
    "name": "Carnalea",
    "station_code": ""
  },
  {
    "country": "GB",
    "latitude": "54.129688",
    "longitude": "-2.771244",
    "name": "Carnforth",
    "station_code": "CNF"
  },
  {
    "country": "GB",
    "latitude": "56.500618",
    "longitude": "-2.7066",
    "name": "Carnoustie",
    "station_code": "CAN"
  },
  {
    "country": "GB",
    "latitude": "55.854412",
    "longitude": "-4.17898",
    "name": "Carntyne",
    "station_code": "CAY"
  },
  {
    "country": "GB",
    "latitude": "51.627885",
    "longitude": "-0.385578",
    "name": "Carpenders Park",
    "station_code": "CPK"
  },
  {
    "country": "GB",
    "latitude": "57.279873",
    "longitude": "-3.829541",
    "name": "Carrbridge",
    "station_code": "CAG"
  },
  {
    "country": "NI",
    "latitude": "-5.809689",
    "longitude": "54.717422",
    "name": "Carrickfergus",
    "station_code": ""
  },
  {
    "country": "GB",
    "latitude": "51.367859",
    "longitude": "-0.16693",
    "name": "Carshalton",
    "station_code": "CSH"
  },
  {
    "country": "GB",
    "latitude": "51.357117",
    "longitude": "-0.17023",
    "name": "Carshalton Beeches",
    "station_code": "CSB"
  },
  {
    "country": "GB",
    "latitude": "55.69075",
    "longitude": "-3.668696",
    "name": "Carstairs",
    "station_code": "CRS"
  },
  {
    "country": "GB",
    "latitude": "55.942261",
    "longitude": "-4.731633",
    "name": "Cartsdyke",
    "station_code": "CDY"
  },
  {
    "country": "GB",
    "latitude": "51.522865",
    "longitude": "-0.331575",
    "name": "Castle Bar Park",
    "station_code": "CBP"
  },
  {
    "country": "GB",
    "latitude": "51.099583",
    "longitude": "-2.522683",
    "name": "Castle Cary",
    "station_code": "CLC"
  },
  {
    "country": "GB",
    "latitude": "53.724171",
    "longitude": "-1.355852",
    "name": "Castleford",
    "station_code": "CFD"
  },
  {
    "country": "NI",
    "latitude": "-6.786944",
    "longitude": "55.165278",
    "name": "Castlerock",
    "station_code": ""
  },
  {
    "country": "GB",
    "latitude": "53.591804",
    "longitude": "-2.178125",
    "name": "Castleton",
    "station_code": "CAS"
  },
  {
    "country": "GB",
    "latitude": "54.467297",
    "longitude": "-0.947707",
    "name": "Castleton Moor",
    "station_code": "CSM"
  },
  {
    "country": "GB",
    "latitude": "51.282803",
    "longitude": "-0.078539",
    "name": "Caterham",
    "station_code": "CAT"
  },
  {
    "country": "GB",
    "latitude": "51.4452",
    "longitude": "-0.0207",
    "name": "Catford",
    "station_code": "33"
  },
  {
    "country": "GB",
    "latitude": "51.444725",
    "longitude": "-0.027142",
    "name": "Catford Bridge",
    "station_code": "CFB"
  },
  {
    "country": "GB",
    "latitude": "51.444706",
    "longitude": "-0.025701",
    "name": "Catford Station",
    "station_code": "CTF"
  },
  {
    "country": "GB",
    "latitude": "51.488678",
    "longitude": "-3.178149",
    "name": "Cathays",
    "station_code": "CYS"
  },
  {
    "country": "GB",
    "latitude": "55.817879",
    "longitude": "-4.261552",
    "name": "Cathcart",
    "station_code": "CCT"
  },
  {
    "country": "GB",
    "latitude": "53.997515",
    "longitude": "-1.319808",
    "name": "Cattal",
    "station_code": "CTL"
  },
  {
    "country": "GB",
    "latitude": "50.405525",
    "longitude": "-4.466937",
    "name": "Causeland",
    "station_code": "CAU"
  },
  {
    "country": "GB",
    "latitude": "53.098511",
    "longitude": "-3.031972",
    "name": "Cefn-Y-Bedd",
    "station_code": "CYB"
  },
  {
    "country": "GB",
    "latitude": "53.50103",
    "longitude": "-2.19896",
    "name": "Central Park Metrolink",
    "station_code": "CEM"
  },
  {
    "country": "GB",
    "latitude": "51.567905",
    "longitude": "0.128263",
    "name": "Chadwell Heath",
    "station_code": "CTH"
  },
  {
    "country": "GB",
    "latitude": "51.502792",
    "longitude": "0.290938",
    "name": "Chafford Hundred",
    "station_code": "CFH"
  },
  {
    "country": "GB",
    "latitude": "51.66835",
    "longitude": "-0.560646",
    "name": "Chalfont & Latimer",
    "station_code": "CFO"
  },
  {
    "country": "GB",
    "latitude": "51.53883",
    "longitude": "0.6706",
    "name": "Chalkwell",
    "station_code": "CHW"
  },
  {
    "country": "GB",
    "latitude": "50.983",
    "longitude": "-1.3845",
    "name": "Chandlers Ford",
    "station_code": "CFR"
  },
  {
    "country": "GB",
    "latitude": "53.312405",
    "longitude": "-1.918915",
    "name": "Chapel-En-Le-Frith",
    "station_code": "CEF"
  },
  {
    "country": "GB",
    "latitude": "53.464046",
    "longitude": "-1.466743",
    "name": "Chapeltown",
    "station_code": "CLN"
  },
  {
    "country": "GB",
    "latitude": "51.01577",
    "longitude": "-4.024398",
    "name": "Chapleton",
    "station_code": "CPN"
  },
  {
    "country": "GB",
    "latitude": "51.925312",
    "longitude": "0.758944",
    "name": "Chappel & Wakes Colne",
    "station_code": "CWC"
  },
  {
    "country": "GB",
    "latitude": "51.208649",
    "longitude": "0.790337",
    "name": "Charing",
    "station_code": "CHG"
  },
  {
    "country": "GB",
    "latitude": "55.865345",
    "longitude": "-4.270689",
    "name": "Charing Cross Glasgow",
    "station_code": "CHC"
  },
  {
    "country": "GB",
    "latitude": "51.872929",
    "longitude": "-1.490133",
    "name": "Charlbury",
    "station_code": "CBY"
  },
  {
    "country": "GB",
    "latitude": "51.486904",
    "longitude": "0.030852",
    "name": "Charlton",
    "station_code": "CTN"
  },
  {
    "country": "GB",
    "latitude": "51.256958",
    "longitude": "1.018303",
    "name": "Chartham",
    "station_code": "CRT"
  },
  {
    "country": "GB",
    "latitude": "53.44605",
    "longitude": "-2.368171",
    "name": "Chassen Road",
    "station_code": "CSR"
  },
  {
    "country": "GB",
    "latitude": "55.76521",
    "longitude": "-4.00466",
    "name": "Chatelherault",
    "station_code": "CTE"
  },
  {
    "country": "GB",
    "latitude": "51.381161",
    "longitude": "0.520559",
    "name": "Chatham",
    "station_code": "CTM"
  },
  {
    "country": "GB",
    "latitude": "55.536404",
    "longitude": "-1.706846",
    "name": "Chathill",
    "station_code": "CHT"
  },
  {
    "country": "GB",
    "latitude": "53.375956",
    "longitude": "-2.188125",
    "name": "Cheadle Hulme",
    "station_code": "CHU"
  },
  {
    "country": "GB",
    "latitude": "51.35601",
    "longitude": "-0.2148",
    "name": "Cheam",
    "station_code": "CHE"
  },
  {
    "country": "GB",
    "latitude": "51.857908",
    "longitude": "-0.662168",
    "name": "Cheddington",
    "station_code": "CED"
  },
  {
    "country": "GB",
    "latitude": "53.270744",
    "longitude": "-2.280375",
    "name": "Chelford",
    "station_code": "CEL"
  },
  {
    "country": "GB",
    "latitude": "51.736595",
    "longitude": "0.469316",
    "name": "Chelmsford",
    "station_code": "CHM"
  },
  {
    "country": "GB",
    "latitude": "51.35603",
    "longitude": "0.108373",
    "name": "Chelsfield",
    "station_code": "CLD"
  },
  {
    "country": "GB",
    "latitude": "51.896465",
    "longitude": "-2.100245",
    "name": "Cheltenham Spa",
    "station_code": "CNM"
  },
  {
    "country": "GB",
    "latitude": "51.640137",
    "longitude": "-2.67193",
    "name": "Chepstow",
    "station_code": "CPW"
  },
  {
    "country": "GB",
    "latitude": "53.732868",
    "longitude": "-2.518401",
    "name": "Cherry Tree",
    "station_code": "CYT"
  },
  {
    "country": "GB",
    "latitude": "51.387108",
    "longitude": "-0.509667",
    "name": "Chertsey",
    "station_code": "CHY"
  },
  {
    "country": "GB",
    "latitude": "51.702747",
    "longitude": "-0.023171",
    "name": "Cheshunt",
    "station_code": "CHN"
  },
  {
    "country": "GB",
    "latitude": "51.364483",
    "longitude": "-0.300661",
    "name": "Chessington North",
    "station_code": "CSN"
  },
  {
    "country": "GB",
    "latitude": "51.356491",
    "longitude": "-0.308144",
    "name": "Chessington South",
    "station_code": "CSS"
  },
  {
    "country": "GB",
    "latitude": "53.196815",
    "longitude": "-2.880152",
    "name": "Chester",
    "station_code": "CTR"
  },
  {
    "country": "GB",
    "latitude": "52.535575",
    "longitude": "-1.832582",
    "name": "Chester Road",
    "station_code": "CRD"
  },
  {
    "country": "GB",
    "latitude": "54.854885",
    "longitude": "-1.577847",
    "name": "Chester-Le-Street",
    "station_code": "CLS"
  },
  {
    "country": "GB",
    "latitude": "53.238209",
    "longitude": "-1.42011",
    "name": "Chesterfield",
    "station_code": "CHD"
  },
  {
    "country": "GB",
    "latitude": "51.360004",
    "longitude": "1.068182",
    "name": "Chestfield & Swalecliffe",
    "station_code": "CSW"
  },
  {
    "country": "GB",
    "latitude": "50.866428",
    "longitude": "-2.574072",
    "name": "Chetnole",
    "station_code": "CNO"
  },
  {
    "country": "GB",
    "latitude": "50.831821",
    "longitude": "-0.783032",
    "name": "Chichester",
    "station_code": "CCH"
  },
  {
    "country": "GB",
    "latitude": "51.244549",
    "longitude": "0.975937",
    "name": "Chilham",
    "station_code": "CIL"
  },
  {
    "country": "GB",
    "latitude": "51.21553",
    "longitude": "-0.523795",
    "name": "Chilworth",
    "station_code": "CHL"
  },
  {
    "country": "GB",
    "latitude": "51.63385",
    "longitude": "0.009955",
    "name": "Chingford",
    "station_code": "CHI"
  },
  {
    "country": "GB",
    "latitude": "53.340275",
    "longitude": "-1.9444",
    "name": "Chinley",
    "station_code": "CLY"
  },
  {
    "country": "GB",
    "latitude": "51.462162",
    "longitude": "-2.115123",
    "name": "Chippenham",
    "station_code": "CPM"
  },
  {
    "country": "GB",
    "latitude": "51.309444",
    "longitude": "-0.169259",
    "name": "Chipstead",
    "station_code": "CHP"
  },
  {
    "country": "GB",
    "latitude": "52.932793",
    "longitude": "-3.066708",
    "name": "Chirk",
    "station_code": "CRK"
  },
  {
    "country": "GB",
    "latitude": "51.405506",
    "longitude": "0.057437",
    "name": "Chislehurst",
    "station_code": "CIT"
  },
  {
    "country": "GB",
    "latitude": "51.4809",
    "longitude": "-0.267538",
    "name": "Chiswick",
    "station_code": "CHK"
  },
  {
    "country": "GB",
    "latitude": "51.570135",
    "longitude": "-1.157942",
    "name": "Cholsey",
    "station_code": "CHO"
  },
  {
    "country": "GB",
    "latitude": "53.652428",
    "longitude": "-2.626693",
    "name": "Chorley",
    "station_code": "CRL"
  },
  {
    "country": "GB",
    "latitude": "51.654188",
    "longitude": "-0.51846",
    "name": "Chorleywood",
    "station_code": "CLW"
  },
  {
    "country": "GB",
    "latitude": "53.44246",
    "longitude": "-2.27396",
    "name": "Chorlton Metrolink",
    "station_code": "CNK"
  },
  {
    "country": "GB",
    "latitude": "50.738148",
    "longitude": "-1.784566",
    "name": "Christchurch",
    "station_code": "CHR"
  },
  {
    "country": "GB",
    "latitude": "51.050629",
    "longitude": "-0.363538",
    "name": "Christs Hospital",
    "station_code": "CHH"
  },
  {
    "country": "GB",
    "latitude": "53.750431",
    "longitude": "-2.391216",
    "name": "Church & Oswaldtwistle",
    "station_code": "CTW"
  },
  {
    "country": "GB",
    "latitude": "53.827671",
    "longitude": "-1.226652",
    "name": "Church Fenton",
    "station_code": "CHF"
  },
  {
    "country": "GB",
    "latitude": "52.536606",
    "longitude": "-2.803485",
    "name": "Church Stretton",
    "station_code": "CTT"
  },
  {
    "country": "GB",
    "latitude": "52.150936",
    "longitude": "-3.45719",
    "name": "Cilmeri",
    "station_code": "CIM"
  },
  {
    "country": "NI",
    "latitude": "-5.9402",
    "longitude": "54.5887",
    "name": "City Hospital",
    "station_code": ""
  },
  {
    "country": "GB",
    "latitude": "51.514336",
    "longitude": "-0.103412",
    "name": "City Thameslink",
    "station_code": "CTK"
  },
  {
    "country": "GB",
    "latitude": "51.793953",
    "longitude": "1.154134",
    "name": "Clacton-On-Sea",
    "station_code": "CLT"
  },
  {
    "country": "GB",
    "latitude": "51.263832",
    "longitude": "-0.503622",
    "name": "Clandon",
    "station_code": "CLA"
  },
  {
    "country": "GB",
    "latitude": "54.105392",
    "longitude": "-2.409858",
    "name": "Clapham (Nth Yorkshire)",
    "station_code": "CPY"
  },
  {
    "country": "GB",
    "latitude": "51.46534",
    "longitude": "-0.1328",
    "name": "Clapham High Street",
    "station_code": "CLP"
  },
  {
    "country": "GB",
    "latitude": "51.464134",
    "longitude": "-0.170281",
    "name": "Clapham Junction",
    "station_code": "CLJ"
  },
  {
    "country": "GB",
    "latitude": "51.56213",
    "longitude": "-0.056685",
    "name": "Clapton",
    "station_code": "CPT"
  },
  {
    "country": "GB",
    "latitude": "51.852207",
    "longitude": "-4.88221",
    "name": "Clarbeston Road",
    "station_code": "CLR"
  },
  {
    "country": "GB",
    "latitude": "55.789753",
    "longitude": "-4.275865",
    "name": "Clarkston",
    "station_code": "CKS"
  },
  {
    "country": "GB",
    "latitude": "52.276424",
    "longitude": "-1.696566",
    "name": "Claverdon",
    "station_code": "CLV"
  },
  {
    "country": "GB",
    "latitude": "51.360664",
    "longitude": "-0.348207",
    "name": "Claygate",
    "station_code": "CLG"
  },
  {
    "country": "GB",
    "latitude": "53.56316",
    "longitude": "-0.029584",
    "name": "Cleethorpes",
    "station_code": "CLE"
  },
  {
    "country": "GB",
    "latitude": "55.804073",
    "longitude": "-3.909695",
    "name": "Cleland",
    "station_code": "CEA"
  },
  {
    "country": "GB",
    "latitude": "53.522503",
    "longitude": "-2.314811",
    "name": "Clifton",
    "station_code": "CLI"
  },
  {
    "country": "GB",
    "latitude": "51.46423",
    "longitude": "-2.611761",
    "name": "Clifton Down",
    "station_code": "CFN"
  },
  {
    "country": "NI",
    "latitude": "-5.4859",
    "longitude": "54.433",
    "name": "Clipperstown",
    "station_code": ""
  },
  {
    "country": "GB",
    "latitude": "53.87345",
    "longitude": "-2.394365",
    "name": "Clitheroe",
    "station_code": "CLH"
  },
  {
    "country": "GB",
    "latitude": "51.408096",
    "longitude": "-0.041668",
    "name": "Clock House",
    "station_code": "CLK"
  },
  {
    "country": "GB",
    "latitude": "51.8405",
    "longitude": "-4.731915",
    "name": "Clunderwen",
    "station_code": "CUW"
  },
  {
    "country": "GB",
    "latitude": "55.900562",
    "longitude": "-4.403927",
    "name": "Clydebank",
    "station_code": "CYK"
  },
  {
    "country": "GB",
    "latitude": "55.863213",
    "longitude": "-4.032443",
    "name": "Coatbridge Central",
    "station_code": "CBC"
  },
  {
    "country": "GB",
    "latitude": "55.866886",
    "longitude": "-4.027847",
    "name": "Coatbridge Sunnyside",
    "station_code": "CBS"
  },
  {
    "country": "GB",
    "latitude": "55.864567",
    "longitude": "-4.005343",
    "name": "Coatdyke",
    "station_code": "COA"
  },
  {
    "country": "GB",
    "latitude": "51.318077",
    "longitude": "-0.389917",
    "name": "Cobham & Stoke Dabernon",
    "station_code": "CSD"
  },
  {
    "country": "GB",
    "latitude": "52.627262",
    "longitude": "-2.200891",
    "name": "Codsall",
    "station_code": "CSL"
  },
  {
    "country": "GB",
    "latitude": "51.445396",
    "longitude": "-3.189974",
    "name": "Cogan",
    "station_code": "CGN"
  },
  {
    "country": "GB",
    "latitude": "51.8917",
    "longitude": "0.903",
    "name": "Colchester",
    "station_code": "37"
  },
  {
    "country": "GB",
    "latitude": "51.900478",
    "longitude": "0.894085",
    "name": "Colchester Station",
    "station_code": "COL"
  },
  {
    "country": "GB",
    "latitude": "51.886505",
    "longitude": "0.904055",
    "name": "Colchester Town",
    "station_code": "CET"
  },
  {
    "country": "NI",
    "latitude": "-6.662937",
    "longitude": "55.133856",
    "name": "Coleraine",
    "station_code": ""
  },
  {
    "country": "GB",
    "latitude": "52.5164",
    "longitude": "-1.7081",
    "name": "Coleshill Parkway",
    "station_code": "CEH"
  },
  {
    "country": "GB",
    "latitude": "53.144047",
    "longitude": "-0.748588",
    "name": "Collingham",
    "station_code": "CLM"
  },
  {
    "country": "GB",
    "latitude": "50.839272",
    "longitude": "0.457142",
    "name": "Collington",
    "station_code": "CLL"
  },
  {
    "country": "GB",
    "latitude": "53.85478",
    "longitude": "-2.181087",
    "name": "Colne",
    "station_code": "CNE"
  },
  {
    "country": "GB",
    "latitude": "52.080284",
    "longitude": "-2.357489",
    "name": "Colwall",
    "station_code": "CWL"
  },
  {
    "country": "GB",
    "latitude": "53.296349",
    "longitude": "-3.725462",
    "name": "Colwyn Bay",
    "station_code": "CWB"
  },
  {
    "country": "GB",
    "latitude": "51.832277",
    "longitude": "-1.392817",
    "name": "Combe",
    "station_code": "CME"
  },
  {
    "country": "GB",
    "latitude": "54.481018",
    "longitude": "-0.97514",
    "name": "Commondale",
    "station_code": "COM"
  },
  {
    "country": "GB",
    "latitude": "53.157637",
    "longitude": "-2.192754",
    "name": "Congleton",
    "station_code": "CNG"
  },
  {
    "country": "GB",
    "latitude": "53.48885",
    "longitude": "-1.234333",
    "name": "Conisbrough",
    "station_code": "CNS"
  },
  {
    "country": "GB",
    "latitude": "56.451981",
    "longitude": "-5.384973",
    "name": "Connel Ferry",
    "station_code": "CON"
  },
  {
    "country": "GB",
    "latitude": "57.5617",
    "longitude": "-4.4404",
    "name": "Conon Bridge",
    "station_code": "CBD"
  },
  {
    "country": "GB",
    "latitude": "53.917351",
    "longitude": "-2.010631",
    "name": "Cononley",
    "station_code": "CEY"
  },
  {
    "country": "GB",
    "latitude": "53.386219",
    "longitude": "-3.026886",
    "name": "Conway Park",
    "station_code": "CNP"
  },
  {
    "country": "GB",
    "latitude": "53.280093",
    "longitude": "-3.83046",
    "name": "Conwy",
    "station_code": "CNW"
  },
  {
    "country": "GB",
    "latitude": "50.83271",
    "longitude": "0.426969",
    "name": "Cooden Beach",
    "station_code": "COB"
  },
  {
    "country": "GB",
    "latitude": "51.556873",
    "longitude": "-0.721948",
    "name": "Cookham",
    "station_code": "COO"
  },
  {
    "country": "GB",
    "latitude": "50.903938",
    "longitude": "-0.010272",
    "name": "Cooksbridge",
    "station_code": "CBR"
  },
  {
    "country": "GB",
    "latitude": "50.44479",
    "longitude": "-4.481655",
    "name": "Coombe",
    "station_code": "COE"
  },
  {
    "country": "GB",
    "latitude": "50.814228",
    "longitude": "-3.751624",
    "name": "Copplestone",
    "station_code": "COP"
  },
  {
    "country": "GB",
    "latitude": "54.966152",
    "longitude": "-2.017141",
    "name": "Corbridge",
    "station_code": "CRB"
  },
  {
    "country": "GB",
    "latitude": "52.489196",
    "longitude": "-0.687944",
    "name": "Corby",
    "station_code": "COR"
  },
  {
    "country": "GB",
    "latitude": "55.836494",
    "longitude": "-4.323322",
    "name": "Corkerhill",
    "station_code": "CKH"
  },
  {
    "country": "GB",
    "latitude": "54.541657",
    "longitude": "-3.582155",
    "name": "Corkickle",
    "station_code": "CKL"
  },
  {
    "country": "GB",
    "latitude": "53.46944",
    "longitude": "-2.26811",
    "name": "Cornbrook Metrolink",
    "station_code": "COZ"
  },
  {
    "country": "GB",
    "latitude": "56.842724",
    "longitude": "-5.121662",
    "name": "Corpach",
    "station_code": "CPA"
  },
  {
    "country": "GB",
    "latitude": "56.760181",
    "longitude": "-4.690966",
    "name": "Corrour",
    "station_code": "CRR"
  },
  {
    "country": "GB",
    "latitude": "51.520512",
    "longitude": "-3.230858",
    "name": "Coryton",
    "station_code": "COY"
  },
  {
    "country": "GB",
    "latitude": "52.545738",
    "longitude": "-2.086051",
    "name": "Coseley",
    "station_code": "CSY"
  },
  {
    "country": "GB",
    "latitude": "52.645031",
    "longitude": "-2.301479",
    "name": "Cosford",
    "station_code": "COS"
  },
  {
    "country": "GB",
    "latitude": "50.841644",
    "longitude": "-1.068259",
    "name": "Cosham",
    "station_code": "CSA"
  },
  {
    "country": "GB",
    "latitude": "53.781826",
    "longitude": "-0.406402",
    "name": "Cottingham",
    "station_code": "CGM"
  },
  {
    "country": "GB",
    "latitude": "53.767437",
    "longitude": "-1.588832",
    "name": "Cottingley",
    "station_code": "COT"
  },
  {
    "country": "GB",
    "latitude": "51.315231",
    "longitude": "-0.13746",
    "name": "Coulsdon South",
    "station_code": "CDS"
  },
  {
    "country": "GB",
    "latitude": "51.32243",
    "longitude": "-0.13429",
    "name": "Coulsdon Town",
    "station_code": "CDN"
  },
  {
    "country": "GB",
    "latitude": "52.400787",
    "longitude": "-1.513466",
    "name": "Coventry",
    "station_code": "COV"
  },
  {
    "country": "GB",
    "latitude": "52.447032",
    "longitude": "-1.494559",
    "name": "Coventry Arena",
    "station_code": "CAA"
  },
  {
    "country": "GB",
    "latitude": "51.155441",
    "longitude": "0.110653",
    "name": "Cowden",
    "station_code": "CWN"
  },
  {
    "country": "GB",
    "latitude": "56.111679",
    "longitude": "-3.344314",
    "name": "Cowdenbeath",
    "station_code": "COW"
  },
  {
    "country": "GB",
    "latitude": "52.469177",
    "longitude": "-2.08976",
    "name": "Cradley Heath",
    "station_code": "CRA"
  },
  {
    "country": "GB",
    "latitude": "55.99485",
    "longitude": "-4.711291",
    "name": "Craigendoran",
    "station_code": "CGD"
  },
  {
    "country": "GB",
    "latitude": "55.088604",
    "longitude": "-1.598887",
    "name": "Cramlington",
    "station_code": "CRM"
  },
  {
    "country": "GB",
    "latitude": "50.7501",
    "longitude": "-3.4206",
    "name": "Cranbrook (Devon)",
    "station_code": "CBK"
  },
  {
    "country": "GB",
    "latitude": "52.441975",
    "longitude": "-2.837077",
    "name": "Craven Arms",
    "station_code": "CRV"
  },
  {
    "country": "GB",
    "latitude": "51.111874",
    "longitude": "-0.187083",
    "name": "Crawley",
    "station_code": "CRW"
  },
  {
    "country": "GB",
    "latitude": "51.448273",
    "longitude": "0.178826",
    "name": "Crayford",
    "station_code": "CRY"
  },
  {
    "country": "GB",
    "latitude": "50.783375",
    "longitude": "-3.646912",
    "name": "Crediton",
    "station_code": "CDI"
  },
  {
    "country": "GB",
    "latitude": "51.852028",
    "longitude": "0.580186",
    "name": "Cressing",
    "station_code": "CES"
  },
  {
    "country": "GB",
    "latitude": "53.3588",
    "longitude": "-2.91172",
    "name": "Cressington",
    "station_code": "CSG"
  },
  {
    "country": "GB",
    "latitude": "53.264008",
    "longitude": "-1.215865",
    "name": "Creswell (Derbys)",
    "station_code": "CWD"
  },
  {
    "country": "GB",
    "latitude": "53.089607",
    "longitude": "-2.432987",
    "name": "Crewe",
    "station_code": "CRE"
  },
  {
    "country": "GB",
    "latitude": "50.873337",
    "longitude": "-2.778815",
    "name": "Crewkerne",
    "station_code": "CKN"
  },
  {
    "country": "GB",
    "latitude": "51.684334",
    "longitude": "-0.106441",
    "name": "Crews Hill",
    "station_code": "CWH"
  },
  {
    "country": "GB",
    "latitude": "56.389652",
    "longitude": "-4.617778",
    "name": "Crianlarich",
    "station_code": "CNR"
  },
  {
    "country": "GB",
    "latitude": "52.918312",
    "longitude": "-4.236972",
    "name": "Criccieth",
    "station_code": "CCC"
  },
  {
    "country": "GB",
    "latitude": "51.559227",
    "longitude": "-0.214071",
    "name": "Cricklewood",
    "station_code": "CRI"
  },
  {
    "country": "GB",
    "latitude": "55.818455",
    "longitude": "-4.229643",
    "name": "Croftfoot",
    "station_code": "CFF"
  },
  {
    "country": "GB",
    "latitude": "51.454777",
    "longitude": "-0.03678",
    "name": "Crofton Park",
    "station_code": "CFT"
  },
  {
    "country": "GB",
    "latitude": "52.930595",
    "longitude": "1.292778",
    "name": "Cromer",
    "station_code": "CMR"
  },
  {
    "country": "GB",
    "latitude": "53.112915",
    "longitude": "-1.548788",
    "name": "Cromford",
    "station_code": "CMF"
  },
  {
    "country": "GB",
    "latitude": "55.84388",
    "longitude": "-4.36049",
    "name": "Crookston",
    "station_code": "CKT"
  },
  {
    "country": "GB",
    "latitude": "53.804638",
    "longitude": "-1.451798",
    "name": "Cross Gates",
    "station_code": "CRG"
  },
  {
    "country": "GB",
    "latitude": "53.858829",
    "longitude": "-1.844886",
    "name": "Crossflatts",
    "station_code": "CFL"
  },
  {
    "country": "GB",
    "latitude": "55.833225",
    "longitude": "-4.257648",
    "name": "Crosshill",
    "station_code": "COI"
  },
  {
    "country": "GB",
    "latitude": "51.621",
    "longitude": "-3.1261",
    "name": "Crosskeys",
    "station_code": "CKY"
  },
  {
    "country": "GB",
    "latitude": "55.833626",
    "longitude": "-4.284813",
    "name": "Crossmyloof",
    "station_code": "CMY"
  },
  {
    "country": "GB",
    "latitude": "53.66756",
    "longitude": "-2.777717",
    "name": "Croston",
    "station_code": "CSO"
  },
  {
    "country": "GB",
    "latitude": "51.571205",
    "longitude": "-0.116907",
    "name": "Crouch Hill",
    "station_code": "CRH"
  },
  {
    "country": "GB",
    "latitude": "51.046085",
    "longitude": "0.188422",
    "name": "Crowborough",
    "station_code": "COH"
  },
  {
    "country": "GB",
    "latitude": "50.888702",
    "longitude": "0.500984",
    "name": "Crowhurst",
    "station_code": "CWU"
  },
  {
    "country": "GB",
    "latitude": "53.589725",
    "longitude": "-0.817042",
    "name": "Crowle",
    "station_code": "CWE"
  },
  {
    "country": "GB",
    "latitude": "51.366356",
    "longitude": "-0.819194",
    "name": "Crowthorne",
    "station_code": "CRN"
  },
  {
    "country": "GB",
    "latitude": "55.955734",
    "longitude": "-4.035697",
    "name": "Croy",
    "station_code": "CRO"
  },
  {
    "country": "GB",
    "latitude": "51.3727",
    "longitude": "-0.1099",
    "name": "Croydon",
    "station_code": "38"
  },
  {
    "country": "GB",
    "latitude": "53.51713",
    "longitude": "-2.24277",
    "name": "Crumpsall Metrolink",
    "station_code": "CRJ"
  },
  {
    "country": "GB",
    "latitude": "51.417603",
    "longitude": "-0.072899",
    "name": "Crystal Palace",
    "station_code": "CYP"
  },
  {
    "country": "GB",
    "latitude": "53.23991",
    "longitude": "-2.599329",
    "name": "Cuddington",
    "station_code": "CUD"
  },
  {
    "country": "GB",
    "latitude": "51.708675",
    "longitude": "-0.109761",
    "name": "Cuffley",
    "station_code": "CUF"
  },
  {
    "country": "GB",
    "latitude": "51.653773",
    "longitude": "-1.236445",
    "name": "Culham",
    "station_code": "CUM"
  },
  {
    "country": "NI",
    "latitude": "-6.2041",
    "longitude": "54.5317",
    "name": "Cullybackey",
    "station_code": ""
  },
  {
    "country": "GB",
    "latitude": "57.919842",
    "longitude": "-4.405676",
    "name": "Culrain",
    "station_code": "CUA"
  },
  {
    "country": "NI",
    "latitude": "-5.805",
    "longitude": "54.6523",
    "name": "Cultra",
    "station_code": ""
  },
  {
    "country": "GB",
    "latitude": "55.941326",
    "longitude": "-3.982089",
    "name": "Cumbernauld",
    "station_code": "CUB"
  },
  {
    "country": "GB",
    "latitude": "56.317043",
    "longitude": "-3.008772",
    "name": "Cupar",
    "station_code": "CUP"
  },
  {
    "country": "GB",
    "latitude": "55.901703",
    "longitude": "-3.317849",
    "name": "Curriehill",
    "station_code": "CUH"
  },
  {
    "country": "GB",
    "latitude": "51.374298",
    "longitude": "0.462693",
    "name": "Cuxton",
    "station_code": "CUX"
  },
  {
    "country": "GB",
    "latitude": "51.701885",
    "longitude": "-3.413774",
    "name": "Cwmbach",
    "station_code": "CMH"
  },
  {
    "country": "GB",
    "latitude": "51.656544",
    "longitude": "-3.016233",
    "name": "Cwmbran",
    "station_code": "CWM"
  },
  {
    "country": "GB",
    "latitude": "52.051689",
    "longitude": "-3.747095",
    "name": "Cynghordy",
    "station_code": "CYN"
  },
  {
    "country": "GB",
    "latitude": "51.526237",
    "longitude": "0.14505",
    "name": "Dagenham Dock",
    "station_code": "DDK"
  },
  {
    "country": "GB",
    "latitude": "51.532065",
    "longitude": "0.146965",
    "name": "Dagenham East L.T.",
    "station_code": "ZDE"
  },
  {
    "country": "GB",
    "latitude": "53.539389",
    "longitude": "-2.516212",
    "name": "Daisy Hill",
    "station_code": "DSY"
  },
  {
    "country": "GB",
    "latitude": "56.044178",
    "longitude": "-3.354809",
    "name": "Dalgety Bay",
    "station_code": "DAG"
  },
  {
    "country": "GB",
    "latitude": "56.400272",
    "longitude": "-4.9832",
    "name": "Dalmally",
    "station_code": "DAL"
  },
  {
    "country": "GB",
    "latitude": "55.839371",
    "longitude": "-4.21647",
    "name": "Dalmarnock",
    "station_code": "DAK"
  },
  {
    "country": "GB",
    "latitude": "55.986362",
    "longitude": "-3.381645",
    "name": "Dalmeny",
    "station_code": "DAM"
  },
  {
    "country": "GB",
    "latitude": "55.911793",
    "longitude": "-4.427038",
    "name": "Dalmuir",
    "station_code": "DMR"
  },
  {
    "country": "GB",
    "latitude": "55.947365",
    "longitude": "-4.578226",
    "name": "Dalreoch",
    "station_code": "DLR"
  },
  {
    "country": "GB",
    "latitude": "55.705395",
    "longitude": "-4.711899",
    "name": "Dalry",
    "station_code": "DLY"
  },
  {
    "country": "GB",
    "latitude": "54.846203",
    "longitude": "-2.988866",
    "name": "Dalston (Cumbria)",
    "station_code": "DLS"
  },
  {
    "country": "GB",
    "latitude": "51.546139",
    "longitude": "-0.07544",
    "name": "Dalston Junction",
    "station_code": "DLJ"
  },
  {
    "country": "GB",
    "latitude": "51.548035",
    "longitude": "-0.074594",
    "name": "Dalston Kingsland",
    "station_code": "DLK"
  },
  {
    "country": "GB",
    "latitude": "54.15424",
    "longitude": "-3.179031",
    "name": "Dalton",
    "station_code": "DLT"
  },